{"type": "FeatureCollection",
  "features": [
    {
      "type": "Feature",
      "geometry": {
        "type": "Point",
        "coordinates":  [ -98.40432,29.18025 ]
      },
      "properties": {
        "yelpID":"zGQQXPcMxY2Ky2xPe874tA",
        "name":"That Burger Bus",
        "category":"family",
        "yelpCategory":"Food Trucks"
      }
    },
    {
      "type": "Feature",
      "geometry": {
        "type": "Point",
        "coordinates":  [ -98.40660858,29.35937881 ]
      },
      "properties": {
        "yelpID":"dW_rwEj1SsoeBACwox6X-A",
        "name":"Curve Drive Inn",
        "category":"family",
        "yelpCategory":"Breakfast & Brunch"
      }
    },
    {
      "type": "Feature",
      "geometry": {
        "type": "Point",
        "coordinates":  [ -98.54704,29.35941 ]
      },
      "properties": {
        "yelpID":"DWrcQJoHQG_ZSAxP8fl3Rg",
        "name":"Dos Julios Mexican Restaurant 2",
        "category":"family",
        "yelpCategory":"Mexican"
      }
    },
    {
      "type": "Feature",
      "geometry": {
        "type": "Point",
        "coordinates":  [ -98.48181,29.36028 ]
      },
      "properties": {
        "yelpID":"2ViSi_3MNn-mW6ylnT08fA",
        "name":"Pizza Hut",
        "category":"family",
        "yelpCategory":"Pizza"
      }
    },
    {
      "type": "Feature",
      "geometry": {
        "type": "Point",
        "coordinates":  [ -98.48165,29.36589 ]
      },
      "properties": {
        "yelpID":"77CX02c95D2x-mutz72GjA",
        "name":"Nicha's Comida Mexicana - Southside",
        "category":"family",
        "yelpCategory":"Mexican"
      }
    },
    {
      "type": "Feature",
      "geometry": {
        "type": "Point",
        "coordinates":  [ -98.50459866,29.36611961 ]
      },
      "properties": {
        "yelpID":"CdE8OgN74h9M_UJOZFS58A",
        "name":"McDonald's",
        "category":"family",
        "yelpCategory":"Fast Food"
      }
    },
    {
      "type": "Feature",
      "geometry": {
        "type": "Point",
        "coordinates":  [ -98.442115,29.366344 ]
      },
      "properties": {
        "yelpID":"Op_6fprdyVc81NexVEJUmQ",
        "name":"Kenny's Burgers",
        "category":"family",
        "yelpCategory":"Burgers"
      }
    },
    {
      "type": "Feature",
      "geometry": {
        "type": "Point",
        "coordinates":  [ -98.44158,29.36676 ]
      },
      "properties": {
        "yelpID":"3qQGlEXjXLWGX-cGgmbfjw",
        "name":"Pizza Hut",
        "category":"family",
        "yelpCategory":"Pizza"
      }
    },
    {
      "type": "Feature",
      "geometry": {
        "type": "Point",
        "coordinates":  [ -98.441947,29.366869 ]
      },
      "properties": {
        "yelpID":"VobkCoLKUGPg2qaIQlNuyw",
        "name":"Neptune's Seafood House",
        "category":"family",
        "yelpCategory":"Seafood"
      }
    },
    {
      "type": "Feature",
      "geometry": {
        "type": "Point",
        "coordinates":  [ -98.53773,29.36786 ]
      },
      "properties": {
        "yelpID":"dTTxJqg5dvY6a5aJxbW42g",
        "name":"Arredondo's Seafood Cafe",
        "category":"family",
        "yelpCategory":"Seafood"
      }
    },
    {
      "type": "Feature",
      "geometry": {
        "type": "Point",
        "coordinates":  [ -98.50429826,29.36824595 ]
      },
      "properties": {
        "yelpID":"em8TrGdQvrAG3yLWvhs36w",
        "name":"Subway",
        "category":"family",
        "yelpCategory":"Sandwiches"
      }
    },
    {
      "type": "Feature",
      "geometry": {
        "type": "Point",
        "coordinates":  [ -98.44307,29.36862 ]
      },
      "properties": {
        "yelpID":"DvGQPUn5Gpe5J0RS-9yVyg",
        "name":"Freds Fish Fry",
        "category":"family",
        "yelpCategory":"American (New)"
      }
    },
    {
      "type": "Feature",
      "geometry": {
        "type": "Point",
        "coordinates":  [ -98.54555,29.3689 ]
      },
      "properties": {
        "yelpID":"03XMuDB5jSlIKb9sX5VY8g",
        "name":"T J's Hamburgers",
        "category":"family",
        "yelpCategory":"Burgers"
      }
    },
    {
      "type": "Feature",
      "geometry": {
        "type": "Point",
        "coordinates":  [ -98.50453186,29.36898422 ]
      },
      "properties": {
        "yelpID":"eYlo4xnUmdurHzI-4pheSw",
        "name":"Domino's Pizza",
        "category":"family",
        "yelpCategory":"Pizza"
      }
    },
    {
      "type": "Feature",
      "geometry": {
        "type": "Point",
        "coordinates":  [ -98.45342,29.36903 ]
      },
      "properties": {
        "yelpID":"FIv_P1GlyS2fBN81aYLxZQ",
        "name":"IHOP",
        "category":"family",
        "yelpCategory":"Breakfast & Brunch"
      }
    },
    {
      "type": "Feature",
      "geometry": {
        "type": "Point",
        "coordinates":  [ -98.481567,29.369295 ]
      },
      "properties": {
        "yelpID":"QMdESUzHLyH0NdhJQNr8Aw",
        "name":"Mad Mack's Burger Co",
        "category":"family",
        "yelpCategory":"Burgers"
      }
    },
    {
      "type": "Feature",
      "geometry": {
        "type": "Point",
        "coordinates":  [ -98.50386992,29.3700499 ]
      },
      "properties": {
        "yelpID":"F-22oPJ5-qFLBcJ4mi_Blg",
        "name":"Roxy's Burgers",
        "category":"family",
        "yelpCategory":"Burgers"
      }
    },
    {
      "type": "Feature",
      "geometry": {
        "type": "Point",
        "coordinates":  [ -98.504468,29.371182 ]
      },
      "properties": {
        "yelpID":"5PAmNl6o-LhBH8_cy0Tx_w",
        "name":"Claudia's Restaurant",
        "category":"family",
        "yelpCategory":"New Mexican Cuisine"
      }
    },
    {
      "type": "Feature",
      "geometry": {
        "type": "Point",
        "coordinates":  [ -98.50469,29.3729 ]
      },
      "properties": {
        "yelpID":"vmuGrB7afHie_H7t1cqy2g",
        "name":"Camaron Pelado Seafood Restaurant",
        "category":"family",
        "yelpCategory":"Seafood"
      }
    },
    {
      "type": "Feature",
      "geometry": {
        "type": "Point",
        "coordinates":  [ -98.44726,29.37439 ]
      },
      "properties": {
        "yelpID":"pU8huTEBf_rgMmpGfq0gEg",
        "name":"Floyd's Dairy Bar",
        "category":"family",
        "yelpCategory":"Burgers"
      }
    },
    {
      "type": "Feature",
      "geometry": {
        "type": "Point",
        "coordinates":  [ -98.49873,29.37449 ]
      },
      "properties": {
        "yelpID":"JD2KdG4Y49nnC3bE1BYZBw",
        "name":"Monster Burger",
        "category":"family",
        "yelpCategory":"Burgers"
      }
    },
    {
      "type": "Feature",
      "geometry": {
        "type": "Point",
        "coordinates":  [ -98.4474095,29.3744946 ]
      },
      "properties": {
        "yelpID":"oKVp4qQsJZhjK2Vz6OnTxg",
        "name":"El Tipico Restaurant",
        "category":"family",
        "yelpCategory":"Mexican"
      }
    },
    {
      "type": "Feature",
      "geometry": {
        "type": "Point",
        "coordinates":  [ -98.50466813,29.37481278 ]
      },
      "properties": {
        "yelpID":"riVVD8QumqDiTgJ1W338QA",
        "name":"Don Jose Mexican Cafe",
        "category":"family",
        "yelpCategory":"Seafood"
      }
    },
    {
      "type": "Feature",
      "geometry": {
        "type": "Point",
        "coordinates":  [ -98.4557724,29.37495232 ]
      },
      "properties": {
        "yelpID":"lYJ7S7UsM3Bd_MrksxffRw",
        "name":"Wendy's",
        "category":"family",
        "yelpCategory":"Fast Food"
      }
    },
    {
      "type": "Feature",
      "geometry": {
        "type": "Point",
        "coordinates":  [ -98.45632106,29.3750464 ]
      },
      "properties": {
        "yelpID":"UW7gEG9kCa3czr-1eBEEJA",
        "name":"McDonald's",
        "category":"family",
        "yelpCategory":"Fast Food"
      }
    },
    {
      "type": "Feature",
      "geometry": {
        "type": "Point",
        "coordinates":  [ -98.41924,29.37537 ]
      },
      "properties": {
        "yelpID":"S9rxBCbNEeHKZIhFx6XonA",
        "name":"Capparellis Italian Food & Pizza On Southcross",
        "category":"family",
        "yelpCategory":"Italian"
      }
    },
    {
      "type": "Feature",
      "geometry": {
        "type": "Point",
        "coordinates":  [ -98.46174114,29.37562498 ]
      },
      "properties": {
        "yelpID":"_Bg85BUAxpU9jLqNn0Tayg",
        "name":"Sonic Drive-In",
        "category":"family",
        "yelpCategory":"Fast Food"
      }
    },
    {
      "type": "Feature",
      "geometry": {
        "type": "Point",
        "coordinates":  [ -98.48904,29.37592 ]
      },
      "properties": {
        "yelpID":"VTxirQzEXVxvTE-DgwMUFg",
        "name":"South BBQ & Kitchen",
        "category":"family",
        "yelpCategory":"Barbeque"
      }
    },
    {
      "type": "Feature",
      "geometry": {
        "type": "Point",
        "coordinates":  [ -98.44715,29.37701 ]
      },
      "properties": {
        "yelpID":"TcUPxl8wi92KZMNbE7_sTA",
        "name":"Subway",
        "category":"family",
        "yelpCategory":"Fast Food"
      }
    },
    {
      "type": "Feature",
      "geometry": {
        "type": "Point",
        "coordinates":  [ -98.50447421,29.37786084 ]
      },
      "properties": {
        "yelpID":"SCKlVV6VxzPVcpLyXwcTng",
        "name":"Sherry's Texan",
        "category":"family",
        "yelpCategory":"American (Traditional)"
      }
    },
    {
      "type": "Feature",
      "geometry": {
        "type": "Point",
        "coordinates":  [ -98.51285,29.37807 ]
      },
      "properties": {
        "yelpID":"G69mpTXP7xdynV7_hEtimA",
        "name":"Las Cazuelas Restaurant",
        "category":"family",
        "yelpCategory":"Mexican"
      }
    },
    {
      "type": "Feature",
      "geometry": {
        "type": "Point",
        "coordinates":  [ -98.461251,29.378393 ]
      },
      "properties": {
        "yelpID":"LnrsUVPo3xIT5kR606Dvkw",
        "name":"IHOP",
        "category":"family",
        "yelpCategory":"Breakfast & Brunch"
      }
    },
    {
      "type": "Feature",
      "geometry": {
        "type": "Point",
        "coordinates":  [ -98.46052521,29.37881066 ]
      },
      "properties": {
        "yelpID":"XIiNbWgE8xZrTNqpCVW44A",
        "name":"Jimmy John's",
        "category":"family",
        "yelpCategory":"Delis"
      }
    },
    {
      "type": "Feature",
      "geometry": {
        "type": "Point",
        "coordinates":  [ -98.51255582,29.37882318 ]
      },
      "properties": {
        "yelpID":"IQ1149dZ4lHV6sGdsibPyw",
        "name":"Whataburger",
        "category":"family",
        "yelpCategory":"Burgers"
      }
    },
    {
      "type": "Feature",
      "geometry": {
        "type": "Point",
        "coordinates":  [ -98.5291,29.37972 ]
      },
      "properties": {
        "yelpID":"Tbj6FhtwgjnjoZrukKEGIQ",
        "name":"Little Caesars",
        "category":"family",
        "yelpCategory":"Pizza"
      }
    },
    {
      "type": "Feature",
      "geometry": {
        "type": "Point",
        "coordinates":  [ -98.5040722,29.38000207 ]
      },
      "properties": {
        "yelpID":"bhTzEPRAYHfbD_UOoZfD5w",
        "name":"Charly's Cafe",
        "category":"family",
        "yelpCategory":"Tex-Mex"
      }
    },
    {
      "type": "Feature",
      "geometry": {
        "type": "Point",
        "coordinates":  [ -98.51371991,29.38002754 ]
      },
      "properties": {
        "yelpID":"RXCrf08hQa-PX0cbnGXhtw",
        "name":"Sonic Drive-In",
        "category":"family",
        "yelpCategory":"Fast Food"
      }
    },
    {
      "type": "Feature",
      "geometry": {
        "type": "Point",
        "coordinates":  [ -98.4775515,29.381022 ]
      },
      "properties": {
        "yelpID":"8_KgrS-W-Y4iwhUwTjSdRg",
        "name":"Che's Chicken & Burgers",
        "category":"family",
        "yelpCategory":"Burgers"
      }
    },
    {
      "type": "Feature",
      "geometry": {
        "type": "Point",
        "coordinates":  [ -98.46118525,29.38299492 ]
      },
      "properties": {
        "yelpID":"EGcZ6pTOfDgdD9Dczqcidg",
        "name":"Little Caesar's Pizza",
        "category":"family",
        "yelpCategory":"Pizza"
      }
    },
    {
      "type": "Feature",
      "geometry": {
        "type": "Point",
        "coordinates":  [ -98.46080665,29.38379497 ]
      },
      "properties": {
        "yelpID":"k-y-uUPy0A1XpjFFaKoFSA",
        "name":"Whataburger",
        "category":"family",
        "yelpCategory":"Burgers"
      }
    },
    {
      "type": "Feature",
      "geometry": {
        "type": "Point",
        "coordinates":  [ -98.46723,29.38392 ]
      },
      "properties": {
        "yelpID":"qABCkQbuJnpiATHykpbqrg",
        "name":"Dairy Queen",
        "category":"family",
        "yelpCategory":"Fast Food"
      }
    },
    {
      "type": "Feature",
      "geometry": {
        "type": "Point",
        "coordinates":  [ -98.50212,29.38412 ]
      },
      "properties": {
        "yelpID":"V6LV2_DxClau_eESSsE3FA",
        "name":"Rudy's Seafood",
        "category":"family",
        "yelpCategory":"Seafood"
      }
    },
    {
      "type": "Feature",
      "geometry": {
        "type": "Point",
        "coordinates":  [ -98.5330084,29.3856916 ]
      },
      "properties": {
        "yelpID":"FuIgwK8D13JvKkJGayfOHA",
        "name":"Alamo Pizza",
        "category":"family",
        "yelpCategory":"Pizza"
      }
    },
    {
      "type": "Feature",
      "geometry": {
        "type": "Point",
        "coordinates":  [ -98.52460742,29.38608979 ]
      },
      "properties": {
        "yelpID":"8ikkmI83PRfTbd9y1vg_Mg",
        "name":"McDonald's",
        "category":"family",
        "yelpCategory":"Fast Food"
      }
    },
    {
      "type": "Feature",
      "geometry": {
        "type": "Point",
        "coordinates":  [ -98.47932434,29.38793755 ]
      },
      "properties": {
        "yelpID":"YELjudc2CqENo-ZJNOl3SA",
        "name":"Arturo's Cafe",
        "category":"family",
        "yelpCategory":"Cafes"
      }
    },
    {
      "type": "Feature",
      "geometry": {
        "type": "Point",
        "coordinates":  [ -98.52038,29.39081 ]
      },
      "properties": {
        "yelpID":"573g_z_RmkiDSuwcfNqPKw",
        "name":"Gyro's Drive Inn",
        "category":"family",
        "yelpCategory":"American (Traditional)"
      }
    },
    {
      "type": "Feature",
      "geometry": {
        "type": "Point",
        "coordinates":  [ -98.40388,29.39111 ]
      },
      "properties": {
        "yelpID":"Tw3ZSiTdFlQl3wZZv-cYDA",
        "name":"Mr & Mrs G's Home Cooking",
        "category":"family",
        "yelpCategory":"Southern"
      }
    },
    {
      "type": "Feature",
      "geometry": {
        "type": "Point",
        "coordinates":  [ -98.48108,29.39187 ]
      },
      "properties": {
        "yelpID":"Citgm8hVNQdHyWe2o2nE8A",
        "name":"J Anthony's Sea Food Cafe",
        "category":"family",
        "yelpCategory":"Seafood"
      }
    },
    {
      "type": "Feature",
      "geometry": {
        "type": "Point",
        "coordinates":  [ -98.47323,29.39226 ]
      },
      "properties": {
        "yelpID":"IBcVPLB1XtTEoYLZdOMdQg",
        "name":"Patty's Taco House",
        "category":"family",
        "yelpCategory":"Mexican"
      }
    },
    {
      "type": "Feature",
      "geometry": {
        "type": "Point",
        "coordinates":  [ -98.53198,29.39251 ]
      },
      "properties": {
        "yelpID":"WDt0Y8EudPxPFZkRZrSBvw",
        "name":"Mariscos El Paisa",
        "category":"family",
        "yelpCategory":"Seafood"
      }
    },
    {
      "type": "Feature",
      "geometry": {
        "type": "Point",
        "coordinates":  [ -98.4738,29.39275 ]
      },
      "properties": {
        "yelpID":"K68rgJVSTAHIRB3N5TX0cA",
        "name":"The Broken Egg Cafe",
        "category":"family",
        "yelpCategory":"Breakfast & Brunch"
      }
    },
    {
      "type": "Feature",
      "geometry": {
        "type": "Point",
        "coordinates":  [ -98.48579988,29.39278769 ]
      },
      "properties": {
        "yelpID":"UQ-QxRUhxMT2NSEgr_3D3g",
        "name":"Whataburger",
        "category":"family",
        "yelpCategory":"Fast Food"
      }
    },
    {
      "type": "Feature",
      "geometry": {
        "type": "Point",
        "coordinates":  [ -98.49908447,29.39396286 ]
      },
      "properties": {
        "yelpID":"jHKbl7VF1VGGkqcQ4nm2hg",
        "name":"Gyro's Drive Inn",
        "category":"family",
        "yelpCategory":"Seafood"
      }
    },
    {
      "type": "Feature",
      "geometry": {
        "type": "Point",
        "coordinates":  [ -98.40378,29.39436 ]
      },
      "properties": {
        "yelpID":"uFonv0KP1F-Nc4d5utyFYQ",
        "name":"Big Lou's Pizza",
        "category":"family",
        "yelpCategory":"Pizza"
      }
    },
    {
      "type": "Feature",
      "geometry": {
        "type": "Point",
        "coordinates":  [ -98.51733,29.39438 ]
      },
      "properties": {
        "yelpID":"wYsi1f2F0tYD1LdrLN-yXg",
        "name":"Subway",
        "category":"family",
        "yelpCategory":"Sandwiches"
      }
    },
    {
      "type": "Feature",
      "geometry": {
        "type": "Point",
        "coordinates":  [ -98.4038,29.39539 ]
      },
      "properties": {
        "yelpID":"f1NJni8uJZ7osyNGGok6qA",
        "name":"Big Lou's Burgers & BBQ",
        "category":"family",
        "yelpCategory":"Burgers"
      }
    },
    {
      "type": "Feature",
      "geometry": {
        "type": "Point",
        "coordinates":  [ -98.4737899,29.39654 ]
      },
      "properties": {
        "yelpID":"0Y_IaRS_3OjAdc7zZGOTrw",
        "name":"Pizza Hut",
        "category":"family",
        "yelpCategory":"Pizza"
      }
    },
    {
      "type": "Feature",
      "geometry": {
        "type": "Point",
        "coordinates":  [ -98.4024902,29.3982945 ]
      },
      "properties": {
        "yelpID":"qUYI2oQtJvq_AFOKynNWtg",
        "name":"Papa John's Pizza",
        "category":"family",
        "yelpCategory":"Pizza"
      }
    },
    {
      "type": "Feature",
      "geometry": {
        "type": "Point",
        "coordinates":  [ -98.40242,29.39864 ]
      },
      "properties": {
        "yelpID":"Neb2I0eJlx_pwj17APoc7A",
        "name":"Domino's Pizza",
        "category":"family",
        "yelpCategory":"Pizza"
      }
    },
    {
      "type": "Feature",
      "geometry": {
        "type": "Point",
        "coordinates":  [ -98.39164495,29.39869297 ]
      },
      "properties": {
        "yelpID":"FEgKLGNiGYrsUmJjn8kdig",
        "name":"Whataburger",
        "category":"family",
        "yelpCategory":"Burgers"
      }
    },
    {
      "type": "Feature",
      "geometry": {
        "type": "Point",
        "coordinates":  [ -98.39292,29.39895 ]
      },
      "properties": {
        "yelpID":"e_STOqV57RyoLJzAGSto5g",
        "name":"Sonic Drive-In",
        "category":"family",
        "yelpCategory":"Burgers"
      }
    },
    {
      "type": "Feature",
      "geometry": {
        "type": "Point",
        "coordinates":  [ -98.51297372,29.39920461 ]
      },
      "properties": {
        "yelpID":"UlLI8OHDcB3pqCDxQtMpog",
        "name":"Tony's Tacos To Go",
        "category":"family",
        "yelpCategory":"Mexican"
      }
    },
    {
      "type": "Feature",
      "geometry": {
        "type": "Point",
        "coordinates":  [ -98.46159562,29.40085696 ]
      },
      "properties": {
        "yelpID":"UdSdQlCvIl1B0ZQmQvexpA",
        "name":"McDonald's",
        "category":"family",
        "yelpCategory":"Burgers"
      }
    },
    {
      "type": "Feature",
      "geometry": {
        "type": "Point",
        "coordinates":  [ -98.51124,29.40149 ]
      },
      "properties": {
        "yelpID":"cI3OECiMppq6Vj0NSfJJGg",
        "name":"Tommy's Restaurant",
        "category":"family",
        "yelpCategory":"Breakfast & Brunch"
      }
    },
    {
      "type": "Feature",
      "geometry": {
        "type": "Point",
        "coordinates":  [ -98.4822,29.40156 ]
      },
      "properties": {
        "yelpID":"_DeijYeNenZT4moeeSxk5Q",
        "name":"Freetail Brewing",
        "category":"family",
        "yelpCategory":"Breweries"
      }
    },
    {
      "type": "Feature",
      "geometry": {
        "type": "Point",
        "coordinates":  [ -98.405857,29.401827 ]
      },
      "properties": {
        "yelpID":"ZcYgWO8XXgS_AqAAShf9lg",
        "name":"Chatman's Chicken",
        "category":"family",
        "yelpCategory":"Fast Food"
      }
    },
    {
      "type": "Feature",
      "geometry": {
        "type": "Point",
        "coordinates":  [ -98.52442932,29.40225983 ]
      },
      "properties": {
        "yelpID":"IBBLZkgRbIpvA2jPYFd4lQ",
        "name":"Longoria's Grocery & Grill",
        "category":"family",
        "yelpCategory":"American (Traditional)"
      }
    },
    {
      "type": "Feature",
      "geometry": {
        "type": "Point",
        "coordinates":  [ -98.4427464,29.40259383 ]
      },
      "properties": {
        "yelpID":"xgXL5LRMmUaV8ehB_ljyGA",
        "name":"Whataburger",
        "category":"family",
        "yelpCategory":"Burgers"
      }
    },
    {
      "type": "Feature",
      "geometry": {
        "type": "Point",
        "coordinates":  [ -98.40584564,29.40543175 ]
      },
      "properties": {
        "yelpID":"foVnXZAXUa_meEb2XzH0Gw",
        "name":"Little Fish Factory",
        "category":"family",
        "yelpCategory":"Seafood"
      }
    },
    {
      "type": "Feature",
      "geometry": {
        "type": "Point",
        "coordinates":  [ -98.50017,29.40572 ]
      },
      "properties": {
        "yelpID":"vJiMcJ_SHv3Vwfo69t2Eqg",
        "name":"Jimmy's Family Pizza",
        "category":"family",
        "yelpCategory":"Pizza"
      }
    },
    {
      "type": "Feature",
      "geometry": {
        "type": "Point",
        "coordinates":  [ -98.4936867,29.405985 ]
      },
      "properties": {
        "yelpID":"Tjdl-IB8giQiDLSMFHtjAA",
        "name":"Burgerteca",
        "category":"family",
        "yelpCategory":"Burgers"
      }
    },
    {
      "type": "Feature",
      "geometry": {
        "type": "Point",
        "coordinates":  [ -98.49339908,29.40604891 ]
      },
      "properties": {
        "yelpID":"qbWfYzahN4zHty-9rTRM2Q",
        "name":"Villa Rica - Mexican Seafood",
        "category":"family",
        "yelpCategory":"Seafood"
      }
    },
    {
      "type": "Feature",
      "geometry": {
        "type": "Point",
        "coordinates":  [ -98.49601959,29.40775824 ]
      },
      "properties": {
        "yelpID":"wVVFSBnS8PXTZSXDtHZWPA",
        "name":"La Tuna Grill",
        "category":"family",
        "yelpCategory":"Tex-Mex"
      }
    },
    {
      "type": "Feature",
      "geometry": {
        "type": "Point",
        "coordinates":  [ -98.4546699,29.40823 ]
      },
      "properties": {
        "yelpID":"ET1s1FC_k0Yezg3EGFN7Mw",
        "name":"Mittman Fine Foods",
        "category":"family",
        "yelpCategory":"American (Traditional)"
      }
    },
    {
      "type": "Feature",
      "geometry": {
        "type": "Point",
        "coordinates":  [ -98.50203705,29.40843773 ]
      },
      "properties": {
        "yelpID":"dMTas6FFiPfewcFC67-a0A",
        "name":"Il Forno",
        "category":"family",
        "yelpCategory":"Pizza"
      }
    },
    {
      "type": "Feature",
      "geometry": {
        "type": "Point",
        "coordinates":  [ -98.48749,29.4087 ]
      },
      "properties": {
        "yelpID":"I82QiLTFiUB4sTjJzqzIig",
        "name":"Subway",
        "category":"family",
        "yelpCategory":"Sandwiches"
      }
    },
    {
      "type": "Feature",
      "geometry": {
        "type": "Point",
        "coordinates":  [ -98.49527543,29.40900257 ]
      },
      "properties": {
        "yelpID":"a7hui2j4vzjNJzImf5711w",
        "name":"1919",
        "category":"family",
        "yelpCategory":"Lounges"
      }
    },
    {
      "type": "Feature",
      "geometry": {
        "type": "Point",
        "coordinates":  [ -98.49534157,29.40911555 ]
      },
      "properties": {
        "yelpID":"J7Kh6G1RbziLqwazXR7PUg",
        "name":"Joe Blue's",
        "category":"family",
        "yelpCategory":"Bars"
      }
    },
    {
      "type": "Feature",
      "geometry": {
        "type": "Point",
        "coordinates":  [ -98.4953643,29.40959897 ]
      },
      "properties": {
        "yelpID":"SZPMn8vSlb2WurCULgK2Sg",
        "name":"Blue Star Brewing",
        "category":"family",
        "yelpCategory":"Breweries"
      }
    },
    {
      "type": "Feature",
      "geometry": {
        "type": "Point",
        "coordinates":  [ -98.48703,29.40982 ]
      },
      "properties": {
        "yelpID":"SXPDG2cv9fcwxPorMiXKzA",
        "name":"The Patio Southtown",
        "category":"family",
        "yelpCategory":"Burgers"
      }
    },
    {
      "type": "Feature",
      "geometry": {
        "type": "Point",
        "coordinates":  [ -98.473539,29.40985 ]
      },
      "properties": {
        "yelpID":"ooj_bLqxoVCXzH-PwQd2CQ",
        "name":"Tony G's Soul Food",
        "category":"family",
        "yelpCategory":"Soul Food"
      }
    },
    {
      "type": "Feature",
      "geometry": {
        "type": "Point",
        "coordinates":  [ -98.49572,29.40988 ]
      },
      "properties": {
        "yelpID":"oeiARW--tO4HKhbCxUPHsg",
        "name":"South Alamode Panini & Gelato Company",
        "category":"family",
        "yelpCategory":"Gelato"
      }
    },
    {
      "type": "Feature",
      "geometry": {
        "type": "Point",
        "coordinates":  [ -98.49535294,29.40989756 ]
      },
      "properties": {
        "yelpID":"s5GWhg6g7aKSFxGsHnFc9A",
        "name":"Halcyon",
        "category":"family",
        "yelpCategory":"Coffee & Tea"
      }
    },
    {
      "type": "Feature",
      "geometry": {
        "type": "Point",
        "coordinates":  [ -98.49555856,29.40998546 ]
      },
      "properties": {
        "yelpID":"oLdog5Vfrxo_E99A_zMypQ",
        "name":"Stella Public House",
        "category":"family",
        "yelpCategory":"Pizza"
      }
    },
    {
      "type": "Feature",
      "geometry": {
        "type": "Point",
        "coordinates":  [ -98.50183,29.41007 ]
      },
      "properties": {
        "yelpID":"VdQn_A6tH3n5SiPqNvD1Ug",
        "name":"The Fruteria Botanero By Chef Johnny Hernandez",
        "category":"family",
        "yelpCategory":"Mexican"
      }
    },
    {
      "type": "Feature",
      "geometry": {
        "type": "Point",
        "coordinates":  [ -98.48681852,29.41034261 ]
      },
      "properties": {
        "yelpID":"T3oCtbanG90JrCnVS6eLbg",
        "name":"Bite",
        "category":"family",
        "yelpCategory":"French"
      }
    },
    {
      "type": "Feature",
      "geometry": {
        "type": "Point",
        "coordinates":  [ -98.50698853,29.41074562 ]
      },
      "properties": {
        "yelpID":"JgbIgWJU_juMwbwzqRJXbg",
        "name":"Wendy's",
        "category":"family",
        "yelpCategory":"Fast Food"
      }
    },
    {
      "type": "Feature",
      "geometry": {
        "type": "Point",
        "coordinates":  [ -98.48703,29.41118 ]
      },
      "properties": {
        "yelpID":"pRp4lpOqcvDTWkCY1ShQDg",
        "name":"Bliss",
        "category":"family",
        "yelpCategory":"American (New)"
      }
    },
    {
      "type": "Feature",
      "geometry": {
        "type": "Point",
        "coordinates":  [ -98.49580877,29.411403 ]
      },
      "properties": {
        "yelpID":"Qbvel21r2GVgDt9nAL1wyQ",
        "name":"Guenther House",
        "category":"family",
        "yelpCategory":"Breakfast & Brunch"
      }
    },
    {
      "type": "Feature",
      "geometry": {
        "type": "Point",
        "coordinates":  [ -98.50645,29.41172 ]
      },
      "properties": {
        "yelpID":"N2uh4ng09aVAFXK_pqoaKA",
        "name":"McDonald's",
        "category":"family",
        "yelpCategory":"Burgers"
      }
    },
    {
      "type": "Feature",
      "geometry": {
        "type": "Point",
        "coordinates":  [ -98.493575,29.411741 ]
      },
      "properties": {
        "yelpID":"ojyfSAA5UR4WuGpR8rEM0w",
        "name":"Attaboy Burgers",
        "category":"family",
        "yelpCategory":"Food Trucks"
      }
    },
    {
      "type": "Feature",
      "geometry": {
        "type": "Point",
        "coordinates":  [ -98.51076508,29.41176033 ]
      },
      "properties": {
        "yelpID":"KyN-_pTAJS7v1HbkAWtgbA",
        "name":"Piedras Negras Cafe",
        "category":"family",
        "yelpCategory":"Mexican"
      }
    },
    {
      "type": "Feature",
      "geometry": {
        "type": "Point",
        "coordinates":  [ -98.492389,29.412391 ]
      },
      "properties": {
        "yelpID":"CpZsZpaVeURirfk8h6Oorw",
        "name":"Liberty Bar",
        "category":"family",
        "yelpCategory":"American (Traditional)"
      }
    },
    {
      "type": "Feature",
      "geometry": {
        "type": "Point",
        "coordinates":  [ -98.4881599,29.41278 ]
      },
      "properties": {
        "yelpID":"iE-WHrQCHwsIzSrM85nAnw",
        "name":"Burger Culture",
        "category":"family",
        "yelpCategory":"Burgers"
      }
    },
    {
      "type": "Feature",
      "geometry": {
        "type": "Point",
        "coordinates":  [ -98.48824203,29.41309136 ]
      },
      "properties": {
        "yelpID":"s9DsVEykSDIKdGAIyV6F6w",
        "name":"Southtown 101",
        "category":"family",
        "yelpCategory":"Bars"
      }
    },
    {
      "type": "Feature",
      "geometry": {
        "type": "Point",
        "coordinates":  [ -98.48770905,29.41326523 ]
      },
      "properties": {
        "yelpID":"p5fAvu_8insRqzv2-oYyJw",
        "name":"Southtown Pizzeria",
        "category":"family",
        "yelpCategory":"Pizza"
      }
    },
    {
      "type": "Feature",
      "geometry": {
        "type": "Point",
        "coordinates":  [ -98.491062,29.413563 ]
      },
      "properties": {
        "yelpID":"djbyNGm1HVaRR1GTqRAzeg",
        "name":"Feast",
        "category":"family",
        "yelpCategory":"American (New)"
      }
    },
    {
      "type": "Feature",
      "geometry": {
        "type": "Point",
        "coordinates":  [ -98.4906311,29.4139709 ]
      },
      "properties": {
        "yelpID":"M66ztVxHfHLZwvW16xlsMA",
        "name":"B&D Ice House",
        "category":"family",
        "yelpCategory":"Bars"
      }
    },
    {
      "type": "Feature",
      "geometry": {
        "type": "Point",
        "coordinates":  [ -98.49120838,29.41398569 ]
      },
      "properties": {
        "yelpID":"uVK_BzVLyMmNc6QZzr6PsQ",
        "name":"Madhatters Tea House & Cafe",
        "category":"family",
        "yelpCategory":"Coffee & Tea"
      }
    },
    {
      "type": "Feature",
      "geometry": {
        "type": "Point",
        "coordinates":  [ -98.490898,29.4141204 ]
      },
      "properties": {
        "yelpID":"_VTIvw1WB_fSfHkHH1DdQQ",
        "name":"Tito's Mexican Restaurant",
        "category":"family",
        "yelpCategory":"Mexican"
      }
    },
    {
      "type": "Feature",
      "geometry": {
        "type": "Point",
        "coordinates":  [ -98.490599,29.414498 ]
      },
      "properties": {
        "yelpID":"-azLu4PCWhMW-rGu3RCzyQ",
        "name":"The Friendly Spot Ice House",
        "category":"family",
        "yelpCategory":"Bars"
      }
    },
    {
      "type": "Feature",
      "geometry": {
        "type": "Point",
        "coordinates":  [ -98.4056849,29.4147729 ]
      },
      "properties": {
        "yelpID":"adtsK3vhxvCT_EXbQsWqAA",
        "name":"Little Caesars Pizza",
        "category":"family",
        "yelpCategory":"Pizza"
      }
    },
    {
      "type": "Feature",
      "geometry": {
        "type": "Point",
        "coordinates":  [ -98.48960876,29.41512489 ]
      },
      "properties": {
        "yelpID":"CLbzZGsLKcUf4G269KEu_Q",
        "name":"Rosario's Mexican Cafe Y Cantina",
        "category":"family",
        "yelpCategory":"Mexican"
      }
    },
    {
      "type": "Feature",
      "geometry": {
        "type": "Point",
        "coordinates":  [ -98.48902469,29.41572021 ]
      },
      "properties": {
        "yelpID":"7UyUbjN_KODs_zlG99jabw",
        "name":"La Focaccia Italian Grill",
        "category":"family",
        "yelpCategory":"Italian"
      }
    },
    {
      "type": "Feature",
      "geometry": {
        "type": "Point",
        "coordinates":  [ -98.473422,29.416188 ]
      },
      "properties": {
        "yelpID":"VBdSVcfZCnjzyG3R-MA0GA",
        "name":"THE DAKOTA",
        "category":"family",
        "yelpCategory":"Pizza"
      }
    },
    {
      "type": "Feature",
      "geometry": {
        "type": "Point",
        "coordinates":  [ -98.48864794,29.41634657 ]
      },
      "properties": {
        "yelpID":"jQFwUZyvra-qqs-JhAfM2Q",
        "name":"The House Boozy Ice Cream & Brews",
        "category":"family",
        "yelpCategory":"Ice Cream & Frozen Yogurt"
      }
    },
    {
      "type": "Feature",
      "geometry": {
        "type": "Point",
        "coordinates":  [ -98.48881527,29.4167748 ]
      },
      "properties": {
        "yelpID":"V0THMfacZasfgEIasTFYcA",
        "name":"Bar America",
        "category":"family",
        "yelpCategory":"Cocktail Bars"
      }
    },
    {
      "type": "Feature",
      "geometry": {
        "type": "Point",
        "coordinates":  [ -98.4844153,29.417013 ]
      },
      "properties": {
        "yelpID":"4XwckdO-Ep8hnUyBD4RYWw",
        "name":"Chart House",
        "category":"family",
        "yelpCategory":"Seafood"
      }
    },
    {
      "type": "Feature",
      "geometry": {
        "type": "Point",
        "coordinates":  [ -98.48968506,29.41730118 ]
      },
      "properties": {
        "yelpID":"h7nTUwSS8vCxWkH49dnYcg",
        "name":"El Mirador",
        "category":"family",
        "yelpCategory":"Mexican"
      }
    },
    {
      "type": "Feature",
      "geometry": {
        "type": "Point",
        "coordinates":  [ -98.4904902,29.41745604 ]
      },
      "properties": {
        "yelpID":"K3r3GA4SqeVUGXJVck0wAg",
        "name":"The Station Cafe",
        "category":"family",
        "yelpCategory":"Salad"
      }
    },
    {
      "type": "Feature",
      "geometry": {
        "type": "Point",
        "coordinates":  [ -98.49011797,29.41759715 ]
      },
      "properties": {
        "yelpID":"ymLDUAQv7WqSp0WacIlGpQ",
        "name":"Maverick",
        "category":"family",
        "yelpCategory":"Comfort Food"
      }
    },
    {
      "type": "Feature",
      "geometry": {
        "type": "Point",
        "coordinates":  [ -98.50182,29.41775 ]
      },
      "properties": {
        "yelpID":"0X-aJ5mkHWzLWHjNIzHzyA",
        "name":"Sanchez Ice House 1",
        "category":"family",
        "yelpCategory":"Bars"
      }
    },
    {
      "type": "Feature",
      "geometry": {
        "type": "Point",
        "coordinates":  [ -98.4882652,29.4179112 ]
      },
      "properties": {
        "yelpID":"ad_O_rgt_LbHRY7dQ6lOew",
        "name":"Battalion",
        "category":"family",
        "yelpCategory":"Italian"
      }
    },
    {
      "type": "Feature",
      "geometry": {
        "type": "Point",
        "coordinates":  [ -98.551919,29.417949 ]
      },
      "properties": {
        "yelpID":"v2W08LpEIU1LAQufj1nxhA",
        "name":"Subway",
        "category":"family",
        "yelpCategory":"Sandwiches"
      }
    },
    {
      "type": "Feature",
      "geometry": {
        "type": "Point",
        "coordinates":  [ -98.48819166,29.41799258 ]
      },
      "properties": {
        "yelpID":"c2ValsO6ZBW6esY6crvhWg",
        "name":"Duke's Seafood & Grill",
        "category":"family",
        "yelpCategory":"Food Trucks"
      }
    },
    {
      "type": "Feature",
      "geometry": {
        "type": "Point",
        "coordinates":  [ -98.47606,29.41828 ]
      },
      "properties": {
        "yelpID":"CqWr3IfC8R26QmZbHmEOQA",
        "name":"The Cherrity Bar",
        "category":"family",
        "yelpCategory":"Bars"
      }
    },
    {
      "type": "Feature",
      "geometry": {
        "type": "Point",
        "coordinates":  [ -98.4999037,29.4183174 ]
      },
      "properties": {
        "yelpID":"xvc27RG1z7z6gBzaf7ppQQ",
        "name":"Pizza Hut",
        "category":"family",
        "yelpCategory":"Pizza"
      }
    },
    {
      "type": "Feature",
      "geometry": {
        "type": "Point",
        "coordinates":  [ -98.48802,29.41873 ]
      },
      "properties": {
        "yelpID":"Oa54yT00o8cNPeVEj_BOEQ",
        "name":"Dough Pizzeria Napoletana",
        "category":"family",
        "yelpCategory":"Pizza"
      }
    },
    {
      "type": "Feature",
      "geometry": {
        "type": "Point",
        "coordinates":  [ -98.48719138,29.41883242 ]
      },
      "properties": {
        "yelpID":"ZWhWDLunRzVHrVZ2os3anw",
        "name":"CommonWealth Coffeehouse Bakery",
        "category":"family",
        "yelpCategory":"Coffee & Tea"
      }
    },
    {
      "type": "Feature",
      "geometry": {
        "type": "Point",
        "coordinates":  [ -98.51778,29.41885 ]
      },
      "properties": {
        "yelpID":"b1nrCG9Cmjymoa-SKq7cUw",
        "name":"Mr. P's",
        "category":"family",
        "yelpCategory":"American (Traditional)"
      }
    },
    {
      "type": "Feature",
      "geometry": {
        "type": "Point",
        "coordinates":  [ -98.48355579,29.41898569 ]
      },
      "properties": {
        "yelpID":"ZCuKfYzP5tn6NwfCYGBLbw",
        "name":"Bar 601",
        "category":"family",
        "yelpCategory":"Cocktail Bars"
      }
    },
    {
      "type": "Feature",
      "geometry": {
        "type": "Point",
        "coordinates":  [ -98.44146,29.41936 ]
      },
      "properties": {
        "yelpID":"EH5GkBPt7g10V13iIuoofw",
        "name":"Texas Burger Company",
        "category":"family",
        "yelpCategory":"American (Traditional)"
      }
    },
    {
      "type": "Feature",
      "geometry": {
        "type": "Point",
        "coordinates":  [ -98.50135,29.419387 ]
      },
      "properties": {
        "yelpID":"bCLp918hEg4YdOSykQ4yOA",
        "name":"Ro-Ho Pork and Bread",
        "category":"family",
        "yelpCategory":"Mexican"
      }
    },
    {
      "type": "Feature",
      "geometry": {
        "type": "Point",
        "coordinates":  [ -98.4708068,29.4198356 ]
      },
      "properties": {
        "yelpID":"iTm3wK_HmnnjcSd4fuN0vw",
        "name":"Mark's Outing",
        "category":"family",
        "yelpCategory":"Burgers"
      }
    },
    {
      "type": "Feature",
      "geometry": {
        "type": "Point",
        "coordinates":  [ -98.52757754,29.41991723 ]
      },
      "properties": {
        "yelpID":"CSMiD8515DLo_KlOty2a2g",
        "name":"McDonald's",
        "category":"family",
        "yelpCategory":"Fast Food"
      }
    },
    {
      "type": "Feature",
      "geometry": {
        "type": "Point",
        "coordinates":  [ -98.48774719,29.42046738 ]
      },
      "properties": {
        "yelpID":"o73IFIK8WdS9X_42I0cs5A",
        "name":"Third Brewsday",
        "category":"family",
        "yelpCategory":"Local Flavor"
      }
    },
    {
      "type": "Feature",
      "geometry": {
        "type": "Point",
        "coordinates":  [ -98.4872665,29.4205529 ]
      },
      "properties": {
        "yelpID":"j45o0oaH7aMIvOknGECnFg",
        "name":"Con Safos - Cocina Y Cantina",
        "category":"family",
        "yelpCategory":"Bars"
      }
    },
    {
      "type": "Feature",
      "geometry": {
        "type": "Point",
        "coordinates":  [ -98.50007847,29.42113019 ]
      },
      "properties": {
        "yelpID":"tYTw09omzF8gnuBM7-lFVQ",
        "name":"Madera's",
        "category":"family",
        "yelpCategory":"Bars"
      }
    },
    {
      "type": "Feature",
      "geometry": {
        "type": "Point",
        "coordinates":  [ -98.490714,29.421269 ]
      },
      "properties": {
        "yelpID":"dg-rMmSZwCc_QX7pHNzyFg",
        "name":"Rio de Gelato",
        "category":"family",
        "yelpCategory":"Gelato"
      }
    },
    {
      "type": "Feature",
      "geometry": {
        "type": "Point",
        "coordinates":  [ -98.48911462,29.42136731 ]
      },
      "properties": {
        "yelpID":"5bG34dL0MF2UIXU5oU4yRQ",
        "name":"La Villita Cafe",
        "category":"family",
        "yelpCategory":"Cafes"
      }
    },
    {
      "type": "Feature",
      "geometry": {
        "type": "Point",
        "coordinates":  [ -98.48815,29.42162 ]
      },
      "properties": {
        "yelpID":"R4WAWm9yc-zSd_QRtu2knA",
        "name":"Guadalajara Grill",
        "category":"family",
        "yelpCategory":"Mexican"
      }
    },
    {
      "type": "Feature",
      "geometry": {
        "type": "Point",
        "coordinates":  [ -98.47850294,29.42163539 ]
      },
      "properties": {
        "yelpID":"03KkgZQDZoQ-1jsoVPiYoQ",
        "name":"SMOKE BBQ Brew Venue",
        "category":"family",
        "yelpCategory":"Barbeque"
      }
    },
    {
      "type": "Feature",
      "geometry": {
        "type": "Point",
        "coordinates":  [ -98.488253,29.421901 ]
      },
      "properties": {
        "yelpID":"BE13CTKdTAatznUAmVDuBg",
        "name":"Fig Tree Restaurant",
        "category":"family",
        "yelpCategory":"American (New)"
      }
    },
    {
      "type": "Feature",
      "geometry": {
        "type": "Point",
        "coordinates":  [ -98.50378,29.42215 ]
      },
      "properties": {
        "yelpID":"PMyJFoeaOOFSRjXHYgpt4Q",
        "name":"Ventanas Bistro & Bar- DoubleTree San Antonio",
        "category":"family",
        "yelpCategory":"Spanish"
      }
    },
    {
      "type": "Feature",
      "geometry": {
        "type": "Point",
        "coordinates":  [ -98.4877999,29.42234 ]
      },
      "properties": {
        "yelpID":"WVci8VJE2GnURs5sMEmFDQ",
        "name":"The River's Edge Cafe + Patio Bar",
        "category":"family",
        "yelpCategory":"Breakfast & Brunch"
      }
    },
    {
      "type": "Feature",
      "geometry": {
        "type": "Point",
        "coordinates":  [ -98.5041199,29.4224434 ]
      },
      "properties": {
        "yelpID":"KMxZEwhjf9lCao5GguPtUg",
        "name":"Ventanas Bistro",
        "category":"family",
        "yelpCategory":"American (Traditional)"
      }
    },
    {
      "type": "Feature",
      "geometry": {
        "type": "Point",
        "coordinates":  [ -98.48778235,29.42249554 ]
      },
      "properties": {
        "yelpID":"gHiyjLK8ugcxPeM3J8KvJw",
        "name":"Durty Nelly's Irish Pub",
        "category":"family",
        "yelpCategory":"Pubs"
      }
    },
    {
      "type": "Feature",
      "geometry": {
        "type": "Point",
        "coordinates":  [ -98.484502,29.422583 ]
      },
      "properties": {
        "yelpID":"9P_DFsIr80ncxAx-gHuUSg",
        "name":"Cactus Flower Cafe",
        "category":"family",
        "yelpCategory":"Tex-Mex"
      }
    },
    {
      "type": "Feature",
      "geometry": {
        "type": "Point",
        "coordinates":  [ -98.48471447,29.42268932 ]
      },
      "properties": {
        "yelpID":"idB-aDtdb5YEijF3ZzwruQ",
        "name":"The Bar At Marriott River Center",
        "category":"family",
        "yelpCategory":"Bars"
      }
    },
    {
      "type": "Feature",
      "geometry": {
        "type": "Point",
        "coordinates":  [ -98.49322,29.422972 ]
      },
      "properties": {
        "yelpID":"3eaqff5J0Ckm6szgolWHgw",
        "name":"Willy B's Pizza",
        "category":"family",
        "yelpCategory":"Pizza"
      }
    },
    {
      "type": "Feature",
      "geometry": {
        "type": "Point",
        "coordinates":  [ -98.48290375,29.42312637 ]
      },
      "properties": {
        "yelpID":"8OUb8P8J7jQR0YH5d06jkQ",
        "name":"Denny's",
        "category":"family",
        "yelpCategory":"Breakfast & Brunch"
      }
    },
    {
      "type": "Feature",
      "geometry": {
        "type": "Point",
        "coordinates":  [ -98.48480344,29.42316108 ]
      },
      "properties": {
        "yelpID":"m8hEW4Ac9z6E8KJs0jUFMw",
        "name":"Chicken Now",
        "category":"family",
        "yelpCategory":"Chicken Wings"
      }
    },
    {
      "type": "Feature",
      "geometry": {
        "type": "Point",
        "coordinates":  [ -98.4846412,29.42323603 ]
      },
      "properties": {
        "yelpID":"Jivdpu_sROPjdeFvU1QB_w",
        "name":"Maria Mia Mexican Bistro",
        "category":"family",
        "yelpCategory":"Mexican"
      }
    },
    {
      "type": "Feature",
      "geometry": {
        "type": "Point",
        "coordinates":  [ -98.48466143,29.42323842 ]
      },
      "properties": {
        "yelpID":"5_Xa4gg8vzRIsVQf_3t-qw",
        "name":"Margaritaville - San Antonio",
        "category":"family",
        "yelpCategory":"Bars"
      }
    },
    {
      "type": "Feature",
      "geometry": {
        "type": "Point",
        "coordinates":  [ -98.489783,29.423367 ]
      },
      "properties": {
        "yelpID":"vR7zr2Lq--B1g-wl8uSAvQ",
        "name":"Las Ramblas",
        "category":"family",
        "yelpCategory":"American (New)"
      }
    },
    {
      "type": "Feature",
      "geometry": {
        "type": "Point",
        "coordinates":  [ -98.49074,29.42338 ]
      },
      "properties": {
        "yelpID":"QP3NB_X9bfk5uMFfJHnJNA",
        "name":"Zocca Cuisine D'Italia",
        "category":"family",
        "yelpCategory":"Italian"
      }
    },
    {
      "type": "Feature",
      "geometry": {
        "type": "Point",
        "coordinates":  [ -98.49485435,29.42346007 ]
      },
      "properties": {
        "yelpID":"5Lazl3JSwItqRdUDwvo67Q",
        "name":"Candy's Old Fashion",
        "category":"family",
        "yelpCategory":"Diners"
      }
    },
    {
      "type": "Feature",
      "geometry": {
        "type": "Point",
        "coordinates":  [ -98.48928206,29.42348287 ]
      },
      "properties": {
        "yelpID":"UT_lt1Ae3EyVkqSp4vvduA",
        "name":"Davenport Lounge",
        "category":"family",
        "yelpCategory":"Dance Clubs"
      }
    },
    {
      "type": "Feature",
      "geometry": {
        "type": "Point",
        "coordinates":  [ -98.48533,29.42356 ]
      },
      "properties": {
        "yelpID":"Pwc_9G0iQPBEbTUfqGqSZA",
        "name":"IHOP",
        "category":"family",
        "yelpCategory":"Breakfast & Brunch"
      }
    },
    {
      "type": "Feature",
      "geometry": {
        "type": "Point",
        "coordinates":  [ -98.486799,29.423606 ]
      },
      "properties": {
        "yelpID":"sPP2It1xff-blvWNPsJZng",
        "name":"Potbelly Sandwich Shop",
        "category":"family",
        "yelpCategory":"Sandwiches"
      }
    },
    {
      "type": "Feature",
      "geometry": {
        "type": "Point",
        "coordinates":  [ -98.48927,29.42365 ]
      },
      "properties": {
        "yelpID":"IXF7ceaOgU5juDkMdQ2N6g",
        "name":"Zinc Bistro & Wine Bar",
        "category":"family",
        "yelpCategory":"Wine Bars"
      }
    },
    {
      "type": "Feature",
      "geometry": {
        "type": "Point",
        "coordinates":  [ -98.492,29.42369 ]
      },
      "properties": {
        "yelpID":"n1QMj77k8tWEeqSe8cnRTA",
        "name":"Biga On The Banks",
        "category":"family",
        "yelpCategory":"American (New)"
      }
    },
    {
      "type": "Feature",
      "geometry": {
        "type": "Point",
        "coordinates":  [ -98.48829525,29.42370296 ]
      },
      "properties": {
        "yelpID":"rLo5yexD4c4tcr3Xv9VgfQ",
        "name":"Schilo's Delicatessen",
        "category":"family",
        "yelpCategory":"Delis"
      }
    },
    {
      "type": "Feature",
      "geometry": {
        "type": "Point",
        "coordinates":  [ -98.484969,29.423715 ]
      },
      "properties": {
        "yelpID":"o6uGVu7eEgt-RceMmiP80A",
        "name":"Hooters",
        "category":"family",
        "yelpCategory":"Chicken Wings"
      }
    },
    {
      "type": "Feature",
      "geometry": {
        "type": "Point",
        "coordinates":  [ -98.48891526,29.4237942 ]
      },
      "properties": {
        "yelpID":"yDJOsePkSanHA88SHGsiWw",
        "name":"Whataburger",
        "category":"family",
        "yelpCategory":"Burgers"
      }
    },
    {
      "type": "Feature",
      "geometry": {
        "type": "Point",
        "coordinates":  [ -98.48432,29.4238 ]
      },
      "properties": {
        "yelpID":"n1cdrb1XRkooSchPCDv__Q",
        "name":"Chili's",
        "category":"family",
        "yelpCategory":"Tex-Mex"
      }
    },
    {
      "type": "Feature",
      "geometry": {
        "type": "Point",
        "coordinates":  [ -98.48432,29.4238 ]
      },
      "properties": {
        "yelpID":"QQZihYCN0XxThLxG0GN49A",
        "name":"Le Petit Bistro",
        "category":"family",
        "yelpCategory":"Sandwiches"
      }
    },
    {
      "type": "Feature",
      "geometry": {
        "type": "Point",
        "coordinates":  [ -98.48432,29.4238 ]
      },
      "properties": {
        "yelpID":"s2NStfmYFdICNQrENxiQSg",
        "name":"Blimpie",
        "category":"family",
        "yelpCategory":"Sandwiches"
      }
    },
    {
      "type": "Feature",
      "geometry": {
        "type": "Point",
        "coordinates":  [ -98.48432,29.4238 ]
      },
      "properties": {
        "yelpID":"TXM-7wyANNCw5Z4s995IIg",
        "name":"Pieology Pizzeria",
        "category":"family",
        "yelpCategory":"Pizza"
      }
    },
    {
      "type": "Feature",
      "geometry": {
        "type": "Point",
        "coordinates":  [ -98.484321,29.423801 ]
      },
      "properties": {
        "yelpID":"yc4YfD48AGRtB3JFgp6cGw",
        "name":"Which Wich",
        "category":"family",
        "yelpCategory":"Sandwiches"
      }
    },
    {
      "type": "Feature",
      "geometry": {
        "type": "Point",
        "coordinates":  [ -98.48432159,29.42380142 ]
      },
      "properties": {
        "yelpID":"q4cLyDHBsJJKC4TF4nytDw",
        "name":"Yard House",
        "category":"family",
        "yelpCategory":"American (New)"
      }
    },
    {
      "type": "Feature",
      "geometry": {
        "type": "Point",
        "coordinates":  [ -98.48522811,29.42382441 ]
      },
      "properties": {
        "yelpID":"6W2TuGk5zJh1TEmDgF139Q",
        "name":"Tony Roma's",
        "category":"family",
        "yelpCategory":"Seafood"
      }
    },
    {
      "type": "Feature",
      "geometry": {
        "type": "Point",
        "coordinates":  [ -98.48962402,29.42385292 ]
      },
      "properties": {
        "yelpID":"vtzoHjYV12CUiuhjdXzfSA",
        "name":"Leapin' Lizard Pub",
        "category":"family",
        "yelpCategory":"Pubs"
      }
    },
    {
      "type": "Feature",
      "geometry": {
        "type": "Point",
        "coordinates":  [ -98.48676819,29.42385747 ]
      },
      "properties": {
        "yelpID":"O40GqtCvXRKDBleHOJ352g",
        "name":"Dave & Buster's",
        "category":"family",
        "yelpCategory":"Eatertainment"
      }
    },
    {
      "type": "Feature",
      "geometry": {
        "type": "Point",
        "coordinates":  [ -98.4875,29.42387 ]
      },
      "properties": {
        "yelpID":"QcaKmzRy3KwQ3zsDYVjRYA",
        "name":"McDonald's",
        "category":"family",
        "yelpCategory":"Fast Food"
      }
    },
    {
      "type": "Feature",
      "geometry": {
        "type": "Point",
        "coordinates":  [ -98.48763,29.42389 ]
      },
      "properties": {
        "yelpID":"9kFwZXAD3VlyGpsdMD1nwQ",
        "name":"On The Rocks Pub",
        "category":"family",
        "yelpCategory":"Sports Bars"
      }
    },
    {
      "type": "Feature",
      "geometry": {
        "type": "Point",
        "coordinates":  [ -98.484492,29.423915 ]
      },
      "properties": {
        "yelpID":"krbrk92Zxd1xuL4t6VLcDw",
        "name":"Luciano Express- Rivercenter Mall",
        "category":"family",
        "yelpCategory":"Italian"
      }
    },
    {
      "type": "Feature",
      "geometry": {
        "type": "Point",
        "coordinates":  [ -98.4844838,29.423922 ]
      },
      "properties": {
        "yelpID":"hsV6l0MTNfJ5M64RQEE1mg",
        "name":"Luciano Ristorante Italiano-On the River",
        "category":"family",
        "yelpCategory":"Italian"
      }
    },
    {
      "type": "Feature",
      "geometry": {
        "type": "Point",
        "coordinates":  [ -98.4955061,29.4239902 ]
      },
      "properties": {
        "yelpID":"ciY62ugscq24P6xOgm2VSQ",
        "name":"The Arizona Cafe 2",
        "category":"family",
        "yelpCategory":"Tex-Mex"
      }
    },
    {
      "type": "Feature",
      "geometry": {
        "type": "Point",
        "coordinates":  [ -98.4881123,29.4239986 ]
      },
      "properties": {
        "yelpID":"5E9Q1d9MzC-GWlh4QhPUfA",
        "name":"Republic of Texas Restaurant on the Riverwalk",
        "category":"family",
        "yelpCategory":"Cocktail Bars"
      }
    },
    {
      "type": "Feature",
      "geometry": {
        "type": "Point",
        "coordinates":  [ -98.48824,29.42402 ]
      },
      "properties": {
        "yelpID":"8xUmlzM6GfyQ88PUP8Zh3g",
        "name":"The Republic Of Texas Restaurant",
        "category":"family",
        "yelpCategory":"Mexican"
      }
    },
    {
      "type": "Feature",
      "geometry": {
        "type": "Point",
        "coordinates":  [ -98.48839,29.42412 ]
      },
      "properties": {
        "yelpID":"A-2-cH0dGVDY7tEs_0BTEA",
        "name":"Boudro's On the River Walk",
        "category":"family",
        "yelpCategory":"American (New)"
      }
    },
    {
      "type": "Feature",
      "geometry": {
        "type": "Point",
        "coordinates":  [ -98.48839,29.42412 ]
      },
      "properties": {
        "yelpID":"BEXwHIkCjpK0BgwA80uUYg",
        "name":"Naked Iguana Tequila Bar",
        "category":"family",
        "yelpCategory":"Bars"
      }
    },
    {
      "type": "Feature",
      "geometry": {
        "type": "Point",
        "coordinates":  [ -98.493628,29.424122 ]
      },
      "properties": {
        "yelpID":"lp-TK6SWk9prJfvset2zDw",
        "name":"Dairy Queen",
        "category":"family",
        "yelpCategory":"Ice Cream & Frozen Yogurt"
      }
    },
    {
      "type": "Feature",
      "geometry": {
        "type": "Point",
        "coordinates":  [ -98.48748779,29.42416573 ]
      },
      "properties": {
        "yelpID":"rgrFmXV-ToS1EzC9QDYHlg",
        "name":"Fuddruckers",
        "category":"family",
        "yelpCategory":"Burgers"
      }
    },
    {
      "type": "Feature",
      "geometry": {
        "type": "Point",
        "coordinates":  [ -98.48877,29.42421 ]
      },
      "properties": {
        "yelpID":"tyLcEIZtFW6aHrSOGRwkwQ",
        "name":"Rio Rio Cantina",
        "category":"family",
        "yelpCategory":"Tex-Mex"
      }
    },
    {
      "type": "Feature",
      "geometry": {
        "type": "Point",
        "coordinates":  [ -98.486243,29.424248 ]
      },
      "properties": {
        "yelpID":"4PXxgPypHM7PDduebT5Rxg",
        "name":"Johnny Rockets",
        "category":"family",
        "yelpCategory":"Diners"
      }
    },
    {
      "type": "Feature",
      "geometry": {
        "type": "Point",
        "coordinates":  [ -98.48841274,29.42438575 ]
      },
      "properties": {
        "yelpID":"zRUxDFFAk6tMYKxVQTFcfA",
        "name":"The Original Mexican Restaurant & Bar",
        "category":"family",
        "yelpCategory":"Mexican"
      }
    },
    {
      "type": "Feature",
      "geometry": {
        "type": "Point",
        "coordinates":  [ -98.48746,29.42439 ]
      },
      "properties": {
        "yelpID":"A7zyhNZnYc5ZR7n9ONjDOg",
        "name":"Pat O'Brien's San Antonio",
        "category":"family",
        "yelpCategory":"Bars"
      }
    },
    {
      "type": "Feature",
      "geometry": {
        "type": "Point",
        "coordinates":  [ -98.488079,29.424444 ]
      },
      "properties": {
        "yelpID":"hcck7HY_F7FI_PgZEgk9aQ",
        "name":"Michelino's",
        "category":"family",
        "yelpCategory":"Italian"
      }
    },
    {
      "type": "Feature",
      "geometry": {
        "type": "Point",
        "coordinates":  [ -98.4880699,29.42445 ]
      },
      "properties": {
        "yelpID":"l9XVCoCILM1TdrICm-sVEA",
        "name":"Agave Bar",
        "category":"family",
        "yelpCategory":"Bars"
      }
    },
    {
      "type": "Feature",
      "geometry": {
        "type": "Point",
        "coordinates":  [ -98.495983,29.424477 ]
      },
      "properties": {
        "yelpID":"dkO7icd3H3CZf81WwwSjzw",
        "name":"Fratello's Ristorante Centro Citta",
        "category":"family",
        "yelpCategory":"Italian"
      }
    },
    {
      "type": "Feature",
      "geometry": {
        "type": "Point",
        "coordinates":  [ -98.4879758,29.4244902 ]
      },
      "properties": {
        "yelpID":"_3hMVfln8MJmSxWqqVr57A",
        "name":"Lone Star Cafe",
        "category":"family",
        "yelpCategory":"Steakhouses"
      }
    },
    {
      "type": "Feature",
      "geometry": {
        "type": "Point",
        "coordinates":  [ -98.487977,29.424567 ]
      },
      "properties": {
        "yelpID":"GKoIbad8nOK1XO731pg3TQ",
        "name":"Cafe Ole",
        "category":"family",
        "yelpCategory":"Mexican"
      }
    },
    {
      "type": "Feature",
      "geometry": {
        "type": "Point",
        "coordinates":  [ -98.49461,29.42458 ]
      },
      "properties": {
        "yelpID":"hw87B0Da_lZYoOYRszjQuA",
        "name":"Presto Pizza",
        "category":"family",
        "yelpCategory":"Pizza"
      }
    },
    {
      "type": "Feature",
      "geometry": {
        "type": "Point",
        "coordinates":  [ -98.49001,29.42461 ]
      },
      "properties": {
        "yelpID":"EtkNV_GUXLzzxFrJjdtcEw",
        "name":"Pizzarita's",
        "category":"family",
        "yelpCategory":"Pizza"
      }
    },
    {
      "type": "Feature",
      "geometry": {
        "type": "Point",
        "coordinates":  [ -98.48768,29.42461 ]
      },
      "properties": {
        "yelpID":"h6XeMsVahOZss9yVMnZAmw",
        "name":"Club Sirius",
        "category":"family",
        "yelpCategory":"Dive Bars"
      }
    },
    {
      "type": "Feature",
      "geometry": {
        "type": "Point",
        "coordinates":  [ -98.490373,29.424623 ]
      },
      "properties": {
        "yelpID":"Ceu9ykOw1ZuYtDwF0xhePA",
        "name":"SoHo Wine & Martini Bar",
        "category":"family",
        "yelpCategory":"Jazz & Blues"
      }
    },
    {
      "type": "Feature",
      "geometry": {
        "type": "Point",
        "coordinates":  [ -98.4880772,29.4246387 ]
      },
      "properties": {
        "yelpID":"OCpjEJOSo--ciS1OGlDwKg",
        "name":"Dick's Last Resort",
        "category":"family",
        "yelpCategory":"Bars"
      }
    },
    {
      "type": "Feature",
      "geometry": {
        "type": "Point",
        "coordinates":  [ -98.485945,29.424646 ]
      },
      "properties": {
        "yelpID":"ZWtmQ20SM0LqfHKf8j-WnA",
        "name":"Menger Bar",
        "category":"family",
        "yelpCategory":"Bars"
      }
    },
    {
      "type": "Feature",
      "geometry": {
        "type": "Point",
        "coordinates":  [ -98.49056,29.42465 ]
      },
      "properties": {
        "yelpID":"G1TA_O4ImM47WJhVCrGBWg",
        "name":"Ostra",
        "category":"family",
        "yelpCategory":"American (New)"
      }
    },
    {
      "type": "Feature",
      "geometry": {
        "type": "Point",
        "coordinates":  [ -98.485931,29.42465 ]
      },
      "properties": {
        "yelpID":"uX4GiW792_5Ivh1SGs3SKw",
        "name":"Colonial Room Restaurant",
        "category":"family",
        "yelpCategory":"American (Traditional)"
      }
    },
    {
      "type": "Feature",
      "geometry": {
        "type": "Point",
        "coordinates":  [ -98.49942516,29.42466013 ]
      },
      "properties": {
        "yelpID":"WWk2ugwbZ3Cq_ADFh8jMcg",
        "name":"Viva Villa",
        "category":"family",
        "yelpCategory":"Mexican"
      }
    },
    {
      "type": "Feature",
      "geometry": {
        "type": "Point",
        "coordinates":  [ -98.4849397,29.42468422 ]
      },
      "properties": {
        "yelpID":"GhoJT8yRUlUUgUDOS-dGNw",
        "name":"Morton's The Steakhouse",
        "category":"family",
        "yelpCategory":"Steakhouses"
      }
    },
    {
      "type": "Feature",
      "geometry": {
        "type": "Point",
        "coordinates":  [ -98.49177353,29.424755 ]
      },
      "properties": {
        "yelpID":"wSeuApOcEFg5SswkbheTqA",
        "name":"Downstairs at the Esquire Tavern",
        "category":"family",
        "yelpCategory":"Lounges"
      }
    },
    {
      "type": "Feature",
      "geometry": {
        "type": "Point",
        "coordinates":  [ -98.45653,29.42482 ]
      },
      "properties": {
        "yelpID":"4DD7PEc-wNbCPbxR418zgA",
        "name":"Onlive Hall Of Fame Cafe",
        "category":"family",
        "yelpCategory":"Sandwiches"
      }
    },
    {
      "type": "Feature",
      "geometry": {
        "type": "Point",
        "coordinates":  [ -98.49174,29.42485 ]
      },
      "properties": {
        "yelpID":"AsL7ifh6n0r9eGkhij6-Ng",
        "name":"The Esquire Tavern",
        "category":"family",
        "yelpCategory":"Lounges"
      }
    },
    {
      "type": "Feature",
      "geometry": {
        "type": "Point",
        "coordinates":  [ -98.476485,29.424855 ]
      },
      "properties": {
        "yelpID":"zMchziNfV4dL2PsENaVONA",
        "name":"Tucker's Kozy Korner",
        "category":"family",
        "yelpCategory":"Bars"
      }
    },
    {
      "type": "Feature",
      "geometry": {
        "type": "Point",
        "coordinates":  [ -98.49215841,29.4248664 ]
      },
      "properties": {
        "yelpID":"8u5RclLkBsXDb2LJrptG8Q",
        "name":"Bella On the River",
        "category":"family",
        "yelpCategory":"Mediterranean"
      }
    },
    {
      "type": "Feature",
      "geometry": {
        "type": "Point",
        "coordinates":  [ -98.4908553,29.4248873 ]
      },
      "properties": {
        "yelpID":"f5sxBtsGQJPMAmEWCMKTkg",
        "name":"Waxy O'Connor's",
        "category":"family",
        "yelpCategory":"Gluten-Free"
      }
    },
    {
      "type": "Feature",
      "geometry": {
        "type": "Point",
        "coordinates":  [ -98.4472067,29.4249265 ]
      },
      "properties": {
        "yelpID":"UHsL8NhCVupF9MvfZzQalQ",
        "name":"Bella's Mexican Restaurant",
        "category":"family",
        "yelpCategory":"Breakfast & Brunch"
      }
    },
    {
      "type": "Feature",
      "geometry": {
        "type": "Point",
        "coordinates":  [ -98.48814949,29.42496114 ]
      },
      "properties": {
        "yelpID":"S1_O_MKvthCTiKO-KotGyA",
        "name":"Rainforest Cafe",
        "category":"family",
        "yelpCategory":"American (Traditional)"
      }
    },
    {
      "type": "Feature",
      "geometry": {
        "type": "Point",
        "coordinates":  [ -98.49912391,29.42497057 ]
      },
      "properties": {
        "yelpID":"S2rCNh1RP_iZcAgNS5ogZA",
        "name":"La Margarita Restaurant & Oyster Bar",
        "category":"family",
        "yelpCategory":"Seafood"
      }
    },
    {
      "type": "Feature",
      "geometry": {
        "type": "Point",
        "coordinates":  [ -98.478092,29.424994 ]
      },
      "properties": {
        "yelpID":"83S7Bp3UwNjp31t1uBleJw",
        "name":"Spaghetti Warehouse",
        "category":"family",
        "yelpCategory":"Italian"
      }
    },
    {
      "type": "Feature",
      "geometry": {
        "type": "Point",
        "coordinates":  [ -98.491085,29.425072 ]
      },
      "properties": {
        "yelpID":"Ri8ny-KWMtWl5yokiKE56w",
        "name":"Iron Cactus",
        "category":"family",
        "yelpCategory":"Mexican"
      }
    },
    {
      "type": "Feature",
      "geometry": {
        "type": "Point",
        "coordinates":  [ -98.48940894,29.42510572 ]
      },
      "properties": {
        "yelpID":"CLPqntzBG_p3wRUCzDAesA",
        "name":"Barriba Cantina",
        "category":"family",
        "yelpCategory":"Mexican"
      }
    },
    {
      "type": "Feature",
      "geometry": {
        "type": "Point",
        "coordinates":  [ -98.43849309,29.42510627 ]
      },
      "properties": {
        "yelpID":"AD2yHahLFQXLkytUiRFINw",
        "name":"The New Frontier Club",
        "category":"family",
        "yelpCategory":"American (Traditional)"
      }
    },
    {
      "type": "Feature",
      "geometry": {
        "type": "Point",
        "coordinates":  [ -98.49318493,29.42511218 ]
      },
      "properties": {
        "yelpID":"vsS85EE_iE41SHbEmsB_1Q",
        "name":"Subway",
        "category":"family",
        "yelpCategory":"Sandwiches"
      }
    },
    {
      "type": "Feature",
      "geometry": {
        "type": "Point",
        "coordinates":  [ -98.48991109,29.42519356 ]
      },
      "properties": {
        "yelpID":"DCpLIlaGzsC8mG2077eANw",
        "name":"Las Canarias",
        "category":"family",
        "yelpCategory":"American (New)"
      }
    },
    {
      "type": "Feature",
      "geometry": {
        "type": "Point",
        "coordinates":  [ -98.50063,29.4252 ]
      },
      "properties": {
        "yelpID":"Irxm91jAsj7W0g260pKMnw",
        "name":"Ranchero Grill & Tap",
        "category":"family",
        "yelpCategory":"Mexican"
      }
    },
    {
      "type": "Feature",
      "geometry": {
        "type": "Point",
        "coordinates":  [ -98.48909,29.42524 ]
      },
      "properties": {
        "yelpID":"miwdldxFgOkkz-BGoPFh3g",
        "name":"Howl at the Moon",
        "category":"family",
        "yelpCategory":"Bars"
      }
    },
    {
      "type": "Feature",
      "geometry": {
        "type": "Point",
        "coordinates":  [ -98.48909,29.42524 ]
      },
      "properties": {
        "yelpID":"r2fYmxLsjGPIehjX4bqY9Q",
        "name":"Hard Rock Cafe",
        "category":"family",
        "yelpCategory":"American (New)"
      }
    },
    {
      "type": "Feature",
      "geometry": {
        "type": "Point",
        "coordinates":  [ -98.489094,29.425241 ]
      },
      "properties": {
        "yelpID":"m8Bz52LH-6FMBP8v-EYJAw",
        "name":"Paesanos Riverwalk",
        "category":"family",
        "yelpCategory":"Italian"
      }
    },
    {
      "type": "Feature",
      "geometry": {
        "type": "Point",
        "coordinates":  [ -98.492729,29.425258 ]
      },
      "properties": {
        "yelpID":"pov8efOwv9HcO54z7LZ7aQ",
        "name":"Judy's Food To Go",
        "category":"family",
        "yelpCategory":"American (New)"
      }
    },
    {
      "type": "Feature",
      "geometry": {
        "type": "Point",
        "coordinates":  [ -98.47154,29.42527 ]
      },
      "properties": {
        "yelpID":"UTpujGQ2hiC91XWCXSgOrg",
        "name":"Dignowity Meats On Houston Street",
        "category":"family",
        "yelpCategory":"Sandwiches"
      }
    },
    {
      "type": "Feature",
      "geometry": {
        "type": "Point",
        "coordinates":  [ -98.47188558,29.42531069 ]
      },
      "properties": {
        "yelpID":"pJKvFN_4iDcwUs7wUrt2Jw",
        "name":"Dignowity Kolaches",
        "category":"family",
        "yelpCategory":"Desserts"
      }
    },
    {
      "type": "Feature",
      "geometry": {
        "type": "Point",
        "coordinates":  [ -98.49185181,29.42531395 ]
      },
      "properties": {
        "yelpID":"3aMy4XY-WmoQHU6KX2Kixw",
        "name":"Texas Land & Cattle",
        "category":"family",
        "yelpCategory":"Steakhouses"
      }
    },
    {
      "type": "Feature",
      "geometry": {
        "type": "Point",
        "coordinates":  [ -98.4844899,29.42536 ]
      },
      "properties": {
        "yelpID":"XblcDCy-0TrS5OOQyDxCDA",
        "name":"Crockett Hotel",
        "category":"family",
        "yelpCategory":"Hotels"
      }
    },
    {
      "type": "Feature",
      "geometry": {
        "type": "Point",
        "coordinates":  [ -98.50309,29.4254 ]
      },
      "properties": {
        "yelpID":"IzIBDhjS3BnPq7zX4Y7D7w",
        "name":"Pico De Gallo",
        "category":"family",
        "yelpCategory":"Bars"
      }
    },
    {
      "type": "Feature",
      "geometry": {
        "type": "Point",
        "coordinates":  [ -98.49038297,29.425427 ]
      },
      "properties": {
        "yelpID":"ptUy5XvQdYI_ePCbq-1zcg",
        "name":"Tex's Sports Bar",
        "category":"family",
        "yelpCategory":"American (Traditional)"
      }
    },
    {
      "type": "Feature",
      "geometry": {
        "type": "Point",
        "coordinates":  [ -98.49794358,29.42548178 ]
      },
      "properties": {
        "yelpID":"T7q3qXtuE5tH1FUTmOQXAg",
        "name":"Papa Johns",
        "category":"family",
        "yelpCategory":"Food Delivery Services"
      }
    },
    {
      "type": "Feature",
      "geometry": {
        "type": "Point",
        "coordinates":  [ -98.48825684,29.42558577 ]
      },
      "properties": {
        "yelpID":"FWMDULPC-Fu2OzBxGdHFGw",
        "name":"Q Kitchen Bar",
        "category":"family",
        "yelpCategory":"Barbeque"
      }
    },
    {
      "type": "Feature",
      "geometry": {
        "type": "Point",
        "coordinates":  [ -98.48829,29.4256 ]
      },
      "properties": {
        "yelpID":"8xXK5SH9_kqE2Qf6yeyjBw",
        "name":"On The Bend Oyster Bar & lounge",
        "category":"family",
        "yelpCategory":"Cocktail Bars"
      }
    },
    {
      "type": "Feature",
      "geometry": {
        "type": "Point",
        "coordinates":  [ -98.4884961,29.42561197 ]
      },
      "properties": {
        "yelpID":"6UgphDqrNIS64AhtKZEy_g",
        "name":"Mad Dogs British Pub",
        "category":"family",
        "yelpCategory":"Pubs"
      }
    },
    {
      "type": "Feature",
      "geometry": {
        "type": "Point",
        "coordinates":  [ -98.49368837,29.42567936 ]
      },
      "properties": {
        "yelpID":"3CCTx3Y_bbh99hvGNZPvJg",
        "name":"Pinch Boil House and Bia Bar",
        "category":"family",
        "yelpCategory":"Pan Asian"
      }
    },
    {
      "type": "Feature",
      "geometry": {
        "type": "Point",
        "coordinates":  [ -98.48918915,29.42573357 ]
      },
      "properties": {
        "yelpID":"arAjKa-Vn7jGw9RPKevNsw",
        "name":"Joe's Crab Shack",
        "category":"family",
        "yelpCategory":"Seafood"
      }
    },
    {
      "type": "Feature",
      "geometry": {
        "type": "Point",
        "coordinates":  [ -98.48883193,29.4258271 ]
      },
      "properties": {
        "yelpID":"c9jnVuBALVqag9wbPmmNbw",
        "name":"Landry's Seafood House",
        "category":"family",
        "yelpCategory":"Seafood"
      }
    },
    {
      "type": "Feature",
      "geometry": {
        "type": "Point",
        "coordinates":  [ -98.497748,29.42583 ]
      },
      "properties": {
        "yelpID":"fohJIkRk1iNRBjRicurC3w",
        "name":"Hoppin' John",
        "category":"family",
        "yelpCategory":"Southern"
      }
    },
    {
      "type": "Feature",
      "geometry": {
        "type": "Point",
        "coordinates":  [ -98.4877851,29.4258541 ]
      },
      "properties": {
        "yelpID":"7pcgYBgwWkOvDS5DBTVvgg",
        "name":"Crazy Sam's Seafood",
        "category":"family",
        "yelpCategory":"Seafood"
      }
    },
    {
      "type": "Feature",
      "geometry": {
        "type": "Point",
        "coordinates":  [ -98.49176,29.42587 ]
      },
      "properties": {
        "yelpID":"ZaOzNdgGNeC1RWfwenND3A",
        "name":"Windows On the River",
        "category":"family",
        "yelpCategory":"American (Traditional)"
      }
    },
    {
      "type": "Feature",
      "geometry": {
        "type": "Point",
        "coordinates":  [ -98.490216,29.426049 ]
      },
      "properties": {
        "yelpID":"Dy-Dp34hW2GO7WmNhppQPw",
        "name":"Subway",
        "category":"family",
        "yelpCategory":"Sandwiches"
      }
    },
    {
      "type": "Feature",
      "geometry": {
        "type": "Point",
        "coordinates":  [ -98.48861821,29.42612752 ]
      },
      "properties": {
        "yelpID":"wt0LdPR1DdfYEkgRjVKVKw",
        "name":"The Local Bar",
        "category":"family",
        "yelpCategory":"Bars"
      }
    },
    {
      "type": "Feature",
      "geometry": {
        "type": "Point",
        "coordinates":  [ -98.49713,29.42614 ]
      },
      "properties": {
        "yelpID":"tgnV63KMASRSk1gWiSIxIA",
        "name":"Cafe Alameda",
        "category":"family",
        "yelpCategory":"Mexican"
      }
    },
    {
      "type": "Feature",
      "geometry": {
        "type": "Point",
        "coordinates":  [ -98.4920043,29.42625587 ]
      },
      "properties": {
        "yelpID":"UREqjKSXyJUqh4wNuigrRA",
        "name":"Acenar Mexican Restaurant",
        "category":"family",
        "yelpCategory":"Mexican"
      }
    },
    {
      "type": "Feature",
      "geometry": {
        "type": "Point",
        "coordinates":  [ -98.50331,29.42627 ]
      },
      "properties": {
        "yelpID":"kF5X2_dprOjSZRO9P_7LTQ",
        "name":"Golden Star Cafe",
        "category":"family",
        "yelpCategory":"Chinese"
      }
    },
    {
      "type": "Feature",
      "geometry": {
        "type": "Point",
        "coordinates":  [ -98.49588,29.42629 ]
      },
      "properties": {
        "yelpID":"PsRuxZBmvTlw6OLlpRS3Kg",
        "name":"Juniper Tar",
        "category":"family",
        "yelpCategory":"Cocktail Bars"
      }
    },
    {
      "type": "Feature",
      "geometry": {
        "type": "Point",
        "coordinates":  [ -98.48806,29.42629242 ]
      },
      "properties": {
        "yelpID":"R7jCMYjGMxc2s38ajeAuDQ",
        "name":"The Ticket Sports Pub",
        "category":"family",
        "yelpCategory":"Sports Bars"
      }
    },
    {
      "type": "Feature",
      "geometry": {
        "type": "Point",
        "coordinates":  [ -98.4952941,29.4263051 ]
      },
      "properties": {
        "yelpID":"DpboktKYCxBBUkH9NC1ZoQ",
        "name":"Domino's Pizza",
        "category":"family",
        "yelpCategory":"Pizza"
      }
    },
    {
      "type": "Feature",
      "geometry": {
        "type": "Point",
        "coordinates":  [ -98.4933437,29.4263051 ]
      },
      "properties": {
        "yelpID":"r2z0y3lJF69UGFt50M_M1A",
        "name":"Rosella At The Rand",
        "category":"family",
        "yelpCategory":"Bars"
      }
    },
    {
      "type": "Feature",
      "geometry": {
        "type": "Point",
        "coordinates":  [ -98.487076,29.426308 ]
      },
      "properties": {
        "yelpID":"oNChyiRjF3jt63nLLRCGjQ",
        "name":"Jimmy John's",
        "category":"family",
        "yelpCategory":"Delis"
      }
    },
    {
      "type": "Feature",
      "geometry": {
        "type": "Point",
        "coordinates":  [ -98.49107,29.426349 ]
      },
      "properties": {
        "yelpID":"uidVpSG9Uv3D-BUng36n4Q",
        "name":"Houston Street Bistro",
        "category":"family",
        "yelpCategory":"American (New)"
      }
    },
    {
      "type": "Feature",
      "geometry": {
        "type": "Point",
        "coordinates":  [ -98.48700225,29.42637425 ]
      },
      "properties": {
        "yelpID":"URBv-klMHWbvENswiJnQXg",
        "name":"Belgian Sweets",
        "category":"family",
        "yelpCategory":"Desserts"
      }
    },
    {
      "type": "Feature",
      "geometry": {
        "type": "Point",
        "coordinates":  [ -98.4888109,29.4264009 ]
      },
      "properties": {
        "yelpID":"KJdhcdNkkN3DYllCmLPtVQ",
        "name":"Buckhorn Saloon & Museum",
        "category":"family",
        "yelpCategory":"Museums"
      }
    },
    {
      "type": "Feature",
      "geometry": {
        "type": "Point",
        "coordinates":  [ -98.48732326,29.42643741 ]
      },
      "properties": {
        "yelpID":"DZLbeQa-AdApEjsuNnB3nQ",
        "name":"Moses Rose's Hideout",
        "category":"family",
        "yelpCategory":"Music Venues"
      }
    },
    {
      "type": "Feature",
      "geometry": {
        "type": "Point",
        "coordinates":  [ -98.46135,29.42656 ]
      },
      "properties": {
        "yelpID":"bVgkNGGHVDu4ZdCG9nP5hw",
        "name":"Little Caesar's Pizza",
        "category":"family",
        "yelpCategory":"Pizza"
      }
    },
    {
      "type": "Feature",
      "geometry": {
        "type": "Point",
        "coordinates":  [ -98.48577,29.42657 ]
      },
      "properties": {
        "yelpID":"TNP0wPaxZhfWn3duQqmK5Q",
        "name":"Oro Restaurant & Bar",
        "category":"family",
        "yelpCategory":"Bars"
      }
    },
    {
      "type": "Feature",
      "geometry": {
        "type": "Point",
        "coordinates":  [ -98.4907654,29.4265813 ]
      },
      "properties": {
        "yelpID":"SpjDrHAsTWrQftfsLgCIjQ",
        "name":"The Palm San Antonio",
        "category":"family",
        "yelpCategory":"Steakhouses"
      }
    },
    {
      "type": "Feature",
      "geometry": {
        "type": "Point",
        "coordinates":  [ -98.492578,29.42659907 ]
      },
      "properties": {
        "yelpID":"N60zUEju6l99vf908S-ngg",
        "name":"Range",
        "category":"family",
        "yelpCategory":"Seafood"
      }
    },
    {
      "type": "Feature",
      "geometry": {
        "type": "Point",
        "coordinates":  [ -98.49100978,29.42661001 ]
      },
      "properties": {
        "yelpID":"HocbcLmnvHvc642fvUET8A",
        "name":"Market on Houston",
        "category":"family",
        "yelpCategory":"American (New)"
      }
    },
    {
      "type": "Feature",
      "geometry": {
        "type": "Point",
        "coordinates":  [ -98.48957,29.42662 ]
      },
      "properties": {
        "yelpID":"lfwzj3hKknLkWk4StJEfQA",
        "name":"La Panadera",
        "category":"family",
        "yelpCategory":"Coffee & Tea"
      }
    },
    {
      "type": "Feature",
      "geometry": {
        "type": "Point",
        "coordinates":  [ -98.51887,29.42662 ]
      },
      "properties": {
        "yelpID":"NC6InV2QKs_p7oE9Y4uFFg",
        "name":"El Fogon Mexican Restaurant",
        "category":"family",
        "yelpCategory":"Mexican"
      }
    },
    {
      "type": "Feature",
      "geometry": {
        "type": "Point",
        "coordinates":  [ -98.4844506,29.4267187 ]
      },
      "properties": {
        "yelpID":"Sa7LUj2n0vLPiixVsEwncA",
        "name":"Bonham Exchange",
        "category":"family",
        "yelpCategory":"Dance Clubs"
      }
    },
    {
      "type": "Feature",
      "geometry": {
        "type": "Point",
        "coordinates":  [ -98.491763,29.426761 ]
      },
      "properties": {
        "yelpID":"wvFzfOR_7r8AeZj2PwmNqg",
        "name":"Zcalo Mio",
        "category":"family",
        "yelpCategory":"Mexican"
      }
    },
    {
      "type": "Feature",
      "geometry": {
        "type": "Point",
        "coordinates":  [ -98.49051,29.42678 ]
      },
      "properties": {
        "yelpID":"Mfj3_ZzuQqCgJNeyleEsWQ",
        "name":"Bohanan's Prime Steak and Seafood",
        "category":"family",
        "yelpCategory":"Steakhouses"
      }
    },
    {
      "type": "Feature",
      "geometry": {
        "type": "Point",
        "coordinates":  [ -98.491,29.42686 ]
      },
      "properties": {
        "yelpID":"KxCglECqtVhlfoG0m-bTrw",
        "name":"Barron's Restaurant",
        "category":"family",
        "yelpCategory":"American (Traditional)"
      }
    },
    {
      "type": "Feature",
      "geometry": {
        "type": "Point",
        "coordinates":  [ -98.437452,29.42698379 ]
      },
      "properties": {
        "yelpID":"_UA0rqaPvRytXpJ3OfHUBA",
        "name":"Whataburger",
        "category":"family",
        "yelpCategory":"Burgers"
      }
    },
    {
      "type": "Feature",
      "geometry": {
        "type": "Point",
        "coordinates":  [ -98.50167722,29.42699658 ]
      },
      "properties": {
        "yelpID":"Vwo6xuQB2BU_LpXyhGYTlw",
        "name":"McDonald's",
        "category":"family",
        "yelpCategory":"Burgers"
      }
    },
    {
      "type": "Feature",
      "geometry": {
        "type": "Point",
        "coordinates":  [ -98.43943787,29.42702866 ]
      },
      "properties": {
        "yelpID":"X-WgsBj9_qiWIZHvavSrwA",
        "name":"Taste Of San Antonio",
        "category":"family",
        "yelpCategory":"Bars"
      }
    },
    {
      "type": "Feature",
      "geometry": {
        "type": "Point",
        "coordinates":  [ -98.4895797,29.4274151 ]
      },
      "properties": {
        "yelpID":"NAOHfkb9C6c834DH5Xu3kA",
        "name":"Rebelle",
        "category":"family",
        "yelpCategory":"American (New)"
      }
    },
    {
      "type": "Feature",
      "geometry": {
        "type": "Point",
        "coordinates":  [ -98.4895797,29.4274151 ]
      },
      "properties": {
        "yelpID":"r1u4TbCX3reA-6Aa-KCxWw",
        "name":"Haunt",
        "category":"family",
        "yelpCategory":"Cocktail Bars"
      }
    },
    {
      "type": "Feature",
      "geometry": {
        "type": "Point",
        "coordinates":  [ -98.5207848,29.42772578 ]
      },
      "properties": {
        "yelpID":"zsBftoKC-kfcb2omljySmA",
        "name":"Sabinas Coffee House",
        "category":"family",
        "yelpCategory":"Coffee & Tea"
      }
    },
    {
      "type": "Feature",
      "geometry": {
        "type": "Point",
        "coordinates":  [ -98.52755,29.42792 ]
      },
      "properties": {
        "yelpID":"KDRtovZp53a8hwZ5tv0BqA",
        "name":"Camaron Pelado Seafood Grill",
        "category":"family",
        "yelpCategory":"Seafood"
      }
    },
    {
      "type": "Feature",
      "geometry": {
        "type": "Point",
        "coordinates":  [ -98.4345703,29.4279575 ]
      },
      "properties": {
        "yelpID":"KGKtdNnRcxxAR4Qt3mT97A",
        "name":"San Antonio Stock Show & Rodeo BBQ Cook Off",
        "category":"family",
        "yelpCategory":"American (Traditional)"
      }
    },
    {
      "type": "Feature",
      "geometry": {
        "type": "Point",
        "coordinates":  [ -98.40562798,29.42798294 ]
      },
      "properties": {
        "yelpID":"MF3APVWPoFRan-WMdhY8BA",
        "name":"Mama B's Restaurant",
        "category":"family",
        "yelpCategory":"Soul Food"
      }
    },
    {
      "type": "Feature",
      "geometry": {
        "type": "Point",
        "coordinates":  [ -98.49146187,29.42846908 ]
      },
      "properties": {
        "yelpID":"mBcmNWS1k9p2q0G-NDSR0A",
        "name":"Kimura Ramen Restaurant",
        "category":"family",
        "yelpCategory":"Ramen"
      }
    },
    {
      "type": "Feature",
      "geometry": {
        "type": "Point",
        "coordinates":  [ -98.49154,29.42854 ]
      },
      "properties": {
        "yelpID":"NpB9QM71dOUKekVLjEwckw",
        "name":"Restaurant Gwendolyn",
        "category":"family",
        "yelpCategory":"American (Traditional)"
      }
    },
    {
      "type": "Feature",
      "geometry": {
        "type": "Point",
        "coordinates":  [ -98.492656,29.4288403 ]
      },
      "properties": {
        "yelpID":"l1IfNyGpJPWuI_eG1HjNWw",
        "name":"111 Grill",
        "category":"family",
        "yelpCategory":"American (Traditional)"
      }
    },
    {
      "type": "Feature",
      "geometry": {
        "type": "Point",
        "coordinates":  [ -98.48017,29.42938 ]
      },
      "properties": {
        "yelpID":"6DMm-DFa_BI8wzeWSNqPjQ",
        "name":"Bexar Pub",
        "category":"family",
        "yelpCategory":"American (Traditional)"
      }
    },
    {
      "type": "Feature",
      "geometry": {
        "type": "Point",
        "coordinates":  [ -98.47722356,29.42941599 ]
      },
      "properties": {
        "yelpID":"7Q0ifncjejmUdtdsBEH6Gw",
        "name":"Alamo Beer",
        "category":"family",
        "yelpCategory":"Breweries"
      }
    },
    {
      "type": "Feature",
      "geometry": {
        "type": "Point",
        "coordinates":  [ -98.54095,29.42968 ]
      },
      "properties": {
        "yelpID":"7BeyChwOm_IfglT7CQHwAA",
        "name":"El Siete Mares",
        "category":"family",
        "yelpCategory":"Mexican"
      }
    },
    {
      "type": "Feature",
      "geometry": {
        "type": "Point",
        "coordinates":  [ -98.542824,29.429852 ]
      },
      "properties": {
        "yelpID":"JXAuk6q8EZih3QU5x1QzQA",
        "name":"Pizza Hut",
        "category":"family",
        "yelpCategory":"Pizza"
      }
    },
    {
      "type": "Feature",
      "geometry": {
        "type": "Point",
        "coordinates":  [ -98.54920645,29.42990205 ]
      },
      "properties": {
        "yelpID":"mgRlD6GOwRBNEFcAGAERxA",
        "name":"McDonald's",
        "category":"family",
        "yelpCategory":"Fast Food"
      }
    },
    {
      "type": "Feature",
      "geometry": {
        "type": "Point",
        "coordinates":  [ -98.54396,29.42998 ]
      },
      "properties": {
        "yelpID":"J4Z1eWx3IFq6voZEdXB6nA",
        "name":"AA Drive In",
        "category":"family",
        "yelpCategory":"Burgers"
      }
    },
    {
      "type": "Feature",
      "geometry": {
        "type": "Point",
        "coordinates":  [ -98.55312,29.43029 ]
      },
      "properties": {
        "yelpID":"Wc3SAOj5Z6LWxSqj8PZDrg",
        "name":"Pizza Patron",
        "category":"family",
        "yelpCategory":"Pizza"
      }
    },
    {
      "type": "Feature",
      "geometry": {
        "type": "Point",
        "coordinates":  [ -98.40504,29.43034 ]
      },
      "properties": {
        "yelpID":"mwXvgJOHDFMfyDh4l0vpSw",
        "name":"Pizza Hut",
        "category":"family",
        "yelpCategory":"Pizza"
      }
    },
    {
      "type": "Feature",
      "geometry": {
        "type": "Point",
        "coordinates":  [ -98.46083,29.43044 ]
      },
      "properties": {
        "yelpID":"CLk358dlCNDD_lM3MkngKQ",
        "name":"Tank's Pizza",
        "category":"family",
        "yelpCategory":"Pizza"
      }
    },
    {
      "type": "Feature",
      "geometry": {
        "type": "Point",
        "coordinates":  [ -98.5493708,29.4304599 ]
      },
      "properties": {
        "yelpID":"LFEC6k_i7P0cJaiPjSzkAw",
        "name":"Wendy's",
        "category":"family",
        "yelpCategory":"Burgers"
      }
    },
    {
      "type": "Feature",
      "geometry": {
        "type": "Point",
        "coordinates":  [ -98.4898539,29.430796 ]
      },
      "properties": {
        "yelpID":"7ITTtWqq0DQFOT4xiZZeJQ",
        "name":"Ocho",
        "category":"family",
        "yelpCategory":"Lounges"
      }
    },
    {
      "type": "Feature",
      "geometry": {
        "type": "Point",
        "coordinates":  [ -98.40495,29.43087 ]
      },
      "properties": {
        "yelpID":"s_U6Z6nyFJU_Xr_0Zuym7g",
        "name":"McDonald's",
        "category":"family",
        "yelpCategory":"Burgers"
      }
    },
    {
      "type": "Feature",
      "geometry": {
        "type": "Point",
        "coordinates":  [ -98.49872,29.43088 ]
      },
      "properties": {
        "yelpID":"CpVaPqfARJnfyF57Z9O2pw",
        "name":"Christopher Columbus Italian Society",
        "category":"family",
        "yelpCategory":"Venues & Event Spaces"
      }
    },
    {
      "type": "Feature",
      "geometry": {
        "type": "Point",
        "coordinates":  [ -98.4809401,29.43142296 ]
      },
      "properties": {
        "yelpID":"Bi3-aLSy4_1VUH4W3VFQsg",
        "name":"La Roca Cantina",
        "category":"family",
        "yelpCategory":"Cocktail Bars"
      }
    },
    {
      "type": "Feature",
      "geometry": {
        "type": "Point",
        "coordinates":  [ -98.40670283,29.4323588 ]
      },
      "properties": {
        "yelpID":"BC7-IBXaTMcqu-1ldBzcFA",
        "name":"La Playa Seafood Restaurant",
        "category":"family",
        "yelpCategory":"Seafood"
      }
    },
    {
      "type": "Feature",
      "geometry": {
        "type": "Point",
        "coordinates":  [ -98.4825533,29.4324933 ]
      },
      "properties": {
        "yelpID":"zVSRW1FS0EfgJXiGQBPaqA",
        "name":"Artisan on Alamo",
        "category":"family",
        "yelpCategory":"Bars"
      }
    },
    {
      "type": "Feature",
      "geometry": {
        "type": "Point",
        "coordinates":  [ -98.47839564,29.43252052 ]
      },
      "properties": {
        "yelpID":"jeJU6D_Dan4hUT6Zvsqy9Q",
        "name":"Burleson Yard Beer Garden",
        "category":"family",
        "yelpCategory":"American (New)"
      }
    },
    {
      "type": "Feature",
      "geometry": {
        "type": "Point",
        "coordinates":  [ -98.48431396,29.43285751 ]
      },
      "properties": {
        "yelpID":"j2Ym1bd-tRyM-G5qXZ1yCw",
        "name":"Pete's Tako House",
        "category":"family",
        "yelpCategory":"Breakfast & Brunch"
      }
    },
    {
      "type": "Feature",
      "geometry": {
        "type": "Point",
        "coordinates":  [ -98.48460039,29.43301185 ]
      },
      "properties": {
        "yelpID":"JgZs5Xv_GP27mSY7UyyIZw",
        "name":"Brooklynite",
        "category":"family",
        "yelpCategory":"Bars"
      }
    },
    {
      "type": "Feature",
      "geometry": {
        "type": "Point",
        "coordinates":  [ -98.484536,29.433077 ]
      },
      "properties": {
        "yelpID":"mJxjKrIGgfwxOEY4TD4Ifw",
        "name":"Say She Ate",
        "category":"family",
        "yelpCategory":"Street Vendors"
      }
    },
    {
      "type": "Feature",
      "geometry": {
        "type": "Point",
        "coordinates":  [ -98.4056849,29.4332329 ]
      },
      "properties": {
        "yelpID":"MmCz8u3BjzBKNTFkrYVQAg",
        "name":"Wendy's",
        "category":"family",
        "yelpCategory":"Fast Food"
      }
    },
    {
      "type": "Feature",
      "geometry": {
        "type": "Point",
        "coordinates":  [ -98.4876869,29.4342488 ]
      },
      "properties": {
        "yelpID":"1qx1DaC5YtHVRl7FpE-S6g",
        "name":"Guillermo's",
        "category":"family",
        "yelpCategory":"Italian"
      }
    },
    {
      "type": "Feature",
      "geometry": {
        "type": "Point",
        "coordinates":  [ -98.40588,29.43466 ]
      },
      "properties": {
        "yelpID":"chd4quXt3Tj7cRv89Ci1yA",
        "name":"Radicke's Bluebonnet Grill",
        "category":"family",
        "yelpCategory":"American (Traditional)"
      }
    },
    {
      "type": "Feature",
      "geometry": {
        "type": "Point",
        "coordinates":  [ -98.48437,29.4347 ]
      },
      "properties": {
        "yelpID":"7hM1bH8AjvFSi_GhRizIGw",
        "name":"Bourbon Street Seafood Kitchen",
        "category":"family",
        "yelpCategory":"Seafood"
      }
    },
    {
      "type": "Feature",
      "geometry": {
        "type": "Point",
        "coordinates":  [ -98.43330067,29.43484397 ]
      },
      "properties": {
        "yelpID":"eSBbeG678fg63HCnL9TDVQ",
        "name":"Rock & Brews - AT&T Center",
        "category":"family",
        "yelpCategory":"American (New)"
      }
    },
    {
      "type": "Feature",
      "geometry": {
        "type": "Point",
        "coordinates":  [ -98.4836333,29.43524219 ]
      },
      "properties": {
        "yelpID":"LvFgDtgaGf7QnjOZXv52pg",
        "name":"Paramour",
        "category":"family",
        "yelpCategory":"Cocktail Bars"
      }
    },
    {
      "type": "Feature",
      "geometry": {
        "type": "Point",
        "coordinates":  [ -98.48221,29.435544 ]
      },
      "properties": {
        "yelpID":"eM_gQ69lDyH_SqrH4FajXA",
        "name":"VFW Post 76",
        "category":"family",
        "yelpCategory":"Dive Bars"
      }
    },
    {
      "type": "Feature",
      "geometry": {
        "type": "Point",
        "coordinates":  [ -98.49978,29.43556 ]
      },
      "properties": {
        "yelpID":"nfq0Np3B7D9b2xUbB1sMmg",
        "name":"King's Hwy Brew n Q",
        "category":"family",
        "yelpCategory":"Barbeque"
      }
    },
    {
      "type": "Feature",
      "geometry": {
        "type": "Point",
        "coordinates":  [ -98.48040112,29.43598811 ]
      },
      "properties": {
        "yelpID":"FBVjK3Wwa8DXL3ZkwbisXg",
        "name":"Rosella Coffee",
        "category":"family",
        "yelpCategory":"Coffee & Tea"
      }
    },
    {
      "type": "Feature",
      "geometry": {
        "type": "Point",
        "coordinates":  [ -98.48058914,29.43614606 ]
      },
      "properties": {
        "yelpID":"okQfuB_oD7qXwnnNKx3MtA",
        "name":"The Luxury",
        "category":"family",
        "yelpCategory":"American (New)"
      }
    },
    {
      "type": "Feature",
      "geometry": {
        "type": "Point",
        "coordinates":  [ -98.4605683,29.4364697 ]
      },
      "properties": {
        "yelpID":"YmcDatcw7QU6363o9RocnA",
        "name":"Lord's Kitchen",
        "category":"family",
        "yelpCategory":"Burgers"
      }
    },
    {
      "type": "Feature",
      "geometry": {
        "type": "Point",
        "coordinates":  [ -98.49477,29.43667 ]
      },
      "properties": {
        "yelpID":"GszTcKbwpAI5xPlpj-hcGQ",
        "name":"Luby's",
        "category":"family",
        "yelpCategory":"American (Traditional)"
      }
    },
    {
      "type": "Feature",
      "geometry": {
        "type": "Point",
        "coordinates":  [ -98.470536,29.437582 ]
      },
      "properties": {
        "yelpID":"AMNb9E9NCwzmP6Cel0i9iA",
        "name":"Chas Market & Kitchen",
        "category":"family",
        "yelpCategory":"Korean"
      }
    },
    {
      "type": "Feature",
      "geometry": {
        "type": "Point",
        "coordinates":  [ -98.49694824,29.43767548 ]
      },
      "properties": {
        "yelpID":"37wcwKIJXQ8Ua-vx2RRyhQ",
        "name":"Wendy's",
        "category":"family",
        "yelpCategory":"Fast Food"
      }
    },
    {
      "type": "Feature",
      "geometry": {
        "type": "Point",
        "coordinates":  [ -98.47899082,29.43770051 ]
      },
      "properties": {
        "yelpID":"4AHjQPfjcknDg2JoXH4eyA",
        "name":"The Roost",
        "category":"family",
        "yelpCategory":"Sports Bars"
      }
    },
    {
      "type": "Feature",
      "geometry": {
        "type": "Point",
        "coordinates":  [ -98.49394,29.43784 ]
      },
      "properties": {
        "yelpID":"EZ6OwzKL62Vj2KAMuj3MJQ",
        "name":"Essence",
        "category":"family",
        "yelpCategory":"Gay Bars"
      }
    },
    {
      "type": "Feature",
      "geometry": {
        "type": "Point",
        "coordinates":  [ -98.4701715,29.4379037 ]
      },
      "properties": {
        "yelpID":"VfbraRhO3ufeXGvyLlM9qQ",
        "name":"Chicago Pizzeria",
        "category":"family",
        "yelpCategory":"Pizza"
      }
    },
    {
      "type": "Feature",
      "geometry": {
        "type": "Point",
        "coordinates":  [ -98.54163475,29.43794064 ]
      },
      "properties": {
        "yelpID":"jjvfMOeOBP-5D0TKAZW7Zw",
        "name":"24th St Pizzeria",
        "category":"family",
        "yelpCategory":"Chicken Wings"
      }
    },
    {
      "type": "Feature",
      "geometry": {
        "type": "Point",
        "coordinates":  [ -98.494019,29.438105 ]
      },
      "properties": {
        "yelpID":"XMxSm0oxXdkh1ypKljvfvg",
        "name":"Cafe Del Mar",
        "category":"family",
        "yelpCategory":"Seafood"
      }
    },
    {
      "type": "Feature",
      "geometry": {
        "type": "Point",
        "coordinates":  [ -98.50257111,29.4382782 ]
      },
      "properties": {
        "yelpID":"8QFxAjFqd9oGjBJ5pRBusQ",
        "name":"M K Davis Restaurant & Bar",
        "category":"family",
        "yelpCategory":"Mexican"
      }
    },
    {
      "type": "Feature",
      "geometry": {
        "type": "Point",
        "coordinates":  [ -98.44978184,29.43839926 ]
      },
      "properties": {
        "yelpID":"J0vsCi56EgijoD4KbBfMfQ",
        "name":"McDonald's",
        "category":"family",
        "yelpCategory":"Burgers"
      }
    },
    {
      "type": "Feature",
      "geometry": {
        "type": "Point",
        "coordinates":  [ -98.49884796,29.43912315 ]
      },
      "properties": {
        "yelpID":"fvaIMY2xP3U1FJSct-Rhvw",
        "name":"Pizza Hut",
        "category":"family",
        "yelpCategory":"Pizza"
      }
    },
    {
      "type": "Feature",
      "geometry": {
        "type": "Point",
        "coordinates":  [ -98.46171633,29.4393805 ]
      },
      "properties": {
        "yelpID":"4US3GkQXwmxkKXYvysqWUg",
        "name":"Sonic Drive-In",
        "category":"family",
        "yelpCategory":"Fast Food"
      }
    },
    {
      "type": "Feature",
      "geometry": {
        "type": "Point",
        "coordinates":  [ -98.4993,29.43943 ]
      },
      "properties": {
        "yelpID":"cMGoyT5C4u-g9X-0kT4seg",
        "name":"Sanchos",
        "category":"family",
        "yelpCategory":"Cocktail Bars"
      }
    },
    {
      "type": "Feature",
      "geometry": {
        "type": "Point",
        "coordinates":  [ -98.47726,29.43999 ]
      },
      "properties": {
        "yelpID":"L-T93cgszH0AyPLP6JDxrQ",
        "name":"San Antonio's Pig Stand",
        "category":"family",
        "yelpCategory":"American (Traditional)"
      }
    },
    {
      "type": "Feature",
      "geometry": {
        "type": "Point",
        "coordinates":  [ -98.49915929,29.439997 ]
      },
      "properties": {
        "yelpID":"t6fDOIBSxKRINBPPemA1Jg",
        "name":"McDonald's",
        "category":"family",
        "yelpCategory":"Burgers"
      }
    },
    {
      "type": "Feature",
      "geometry": {
        "type": "Point",
        "coordinates":  [ -98.49968889,29.44034084 ]
      },
      "properties": {
        "yelpID":"FptEuvklEsLkPpLDeIN8XA",
        "name":"Whataburger",
        "category":"family",
        "yelpCategory":"Burgers"
      }
    },
    {
      "type": "Feature",
      "geometry": {
        "type": "Point",
        "coordinates":  [ -98.50063,29.4405151 ]
      },
      "properties": {
        "yelpID":"54LT6nKwOozT_rhxIQnnDw",
        "name":"The Cove",
        "category":"family",
        "yelpCategory":"Vegetarian"
      }
    },
    {
      "type": "Feature",
      "geometry": {
        "type": "Point",
        "coordinates":  [ -98.46071,29.441 ]
      },
      "properties": {
        "yelpID":"y6flKCILSIQbqJd8Wewg4A",
        "name":"Ma Harper's Creole Kitchen",
        "category":"family",
        "yelpCategory":"Cajun/Creole"
      }
    },
    {
      "type": "Feature",
      "geometry": {
        "type": "Point",
        "coordinates":  [ -98.49951066,29.44114789 ]
      },
      "properties": {
        "yelpID":"5Q4NTx9XzeEiL05_i3mCgQ",
        "name":"Sonic Drive-In",
        "category":"family",
        "yelpCategory":"Ice Cream & Frozen Yogurt"
      }
    },