{"type": "FeatureCollection",
  "name": "PublicSafetyFacilities",
  "crs": { "type": "name", "properties": { "name": "urn:ogc:def:crs:EPSG::4269" } },
  "features": [
    { "type": "Feature", "properties": { "ID": 19, "Name": "Central", "Address": "515 S FRIO ST", "City": "SAN ANTONIO", "State": "TX", "Zip": "78207", "LAT": 29.421551, "LON": -98.504866, "AgencyID": 2, "AgencyType": "POLICE", "FacilityType": "POLICE SUBSTATION" }, "geometry": { "type": "Point", "coordinates": [ -98.504866, 29.421551 ] } },
    { "type": "Feature", "properties": { "ID": 20, "Name": "East", "Address": "3635 E HOUSTON ST", "City": "SAN ANTONIO", "State": "TX", "Zip": "78219", "LAT": 29.42532, "LON": -98.426945, "AgencyID": 2, "AgencyType": "POLICE", "FacilityType": "POLICE SUBSTATION" }, "geometry": { "type": "Point", "coordinates": [ -98.426945, 29.42532 ] } },
    { "type": "Feature", "properties": { "ID": 21, "Name": "North", "Address": "13030 JONES MALTSBERGER RD", "City": "SAN ANTONIO", "State": "TX", "Zip": "78247", "LAT": 29.559728, "LON": -98.459693, "AgencyID": 2, "AgencyType": "POLICE", "FacilityType": "POLICE SUBSTATION" }, "geometry": { "type": "Point", "coordinates": [ -98.459693, 29.559728 ] } },
    { "type": "Feature", "properties": { "ID": 22, "Name": "Prue", "Address": "5020 PRUE RD", "City": "SAN ANTONIO", "State": "TX", "Zip": "78240", "LAT": 29.543157, "LON": -98.583584, "AgencyID": 2, "AgencyType": "POLICE", "FacilityType": "POLICE SUBSTATION" }, "geometry": { "type": "Point", "coordinates": [ -98.583584, 29.543157 ] } },
    { "type": "Feature", "properties": { "ID": 23, "Name": "South", "Address": "711 W MAYFIELD BLVD", "City": "SAN ANTONIO", "State": "TX", "Zip": "78211", "LAT": 29.362151, "LON": -98.535356, "AgencyID": 2, "AgencyType": "POLICE", "FacilityType": "POLICE SUBSTATION" }, "geometry": { "type": "Point", "coordinates": [ -98.535356, 29.362151 ] } },
    { "type": "Feature", "properties": { "ID": 24, "Name": "West", "Address": "7000 CULEBRA RD", "City": "SAN ANTONIO", "State": "TX", "Zip": "78238", "LAT": 29.45009, "LON": -98.626662, "AgencyID": 2, "AgencyType": "POLICE", "FacilityType": "POLICE SUBSTATION" }, "geometry": { "type": "Point", "coordinates": [ -98.626662, 29.45009 ] } },
    { "type": "Feature", "properties": { "ID": 44, "Name": "Headquarters ^", "Address": "315 S SANTA ROSA", "City": "SAN ANTONIO", "State": "TX", "Zip": "78207", "LAT": 29.422478, "LON": -98.498873, "AgencyID": 2, "AgencyType": "POLICE", "FacilityType": "PUBLIC SAFETY HEADQUARTERS" }, "geometry": { "type": "Point", "coordinates": [ -98.498873, 29.422478 ] } },
    { "type": "Feature", "properties": { "ID": 65, "Name": "FS01", "Address": "515 N CHERRY", "City": "SAN ANTONIO", "State": "TX", "Zip": "78202", "LAT": 29.426942, "LON": -98.476537, "AgencyID": 4, "AgencyType": "FIRE", "FacilityType": "FIRE STATION" }, "geometry": { "type": "Point", "coordinates": [ -98.476537, 29.426942 ] } },
    { "type": "Feature", "properties": { "ID": 66, "Name": "FS02", "Address": "601 GILLETTE BLVD", "City": "SAN ANTONIO", "State": "TX", "Zip": "78221", "LAT": 29.330479, "LON": -98.516597, "AgencyID": 4, "AgencyType": "FIRE", "FacilityType": "FIRE STATION" }, "geometry": { "type": "Point", "coordinates": [ -98.516597, 29.330479 ] } },
    { "type": "Feature", "properties": { "ID": 67, "Name": "FS03", "Address": "1425 E COMMERCE ST", "City": "SAN ANTONIO", "State": "TX", "Zip": "78202", "LAT": 29.420809, "LON": -98.473759, "AgencyID": 4, "AgencyType": "FIRE", "FacilityType": "FIRE STATION" }, "geometry": { "type": "Point", "coordinates": [ -98.473759, 29.420809 ] } },
    { "type": "Feature", "properties": { "ID": 68, "Name": "FS05", "Address": "1011 Mason St", "City": "SAN ANTONIO", "State": "TX", "Zip": "78208", "LAT": 29.440559, "LON": -98.461646, "AgencyID": 4, "AgencyType": "FIRE", "FacilityType": "FIRE STATION" }, "geometry": { "type": "Point", "coordinates": [ -98.461646, 29.440559 ] } },
    { "type": "Feature", "properties": { "ID": 69, "Name": "FS04", "Address": "1430 N St Mary's", "City": "SAN ANTONIO", "State": "TX", "Zip": "", "LAT": 29.437517, "LON": -98.484403, "AgencyID": 4, "AgencyType": "FIRE", "FacilityType": "FIRE STATION" }, "geometry": { "type": "Point", "coordinates": [ -98.484403, 29.437517 ] } },
    { "type": "Feature", "properties": { "ID": 70, "Name": "FS06", "Address": "503 W RUSSELL PLACE", "City": "SAN ANTONIO", "State": "TX", "Zip": "78212", "LAT": 29.451296, "LON": -98.498408, "AgencyID": 4, "AgencyType": "FIRE", "FacilityType": "FIRE STATION" }, "geometry": { "type": "Point", "coordinates": [ -98.498408, 29.451296 ] } },
    { "type": "Feature", "properties": { "ID": 71, "Name": "FS07", "Address": "1414 S St Mary's", "City": "SAN ANTONIO", "State": "TX", "Zip": "", "LAT": 29.408208, "LON": -98.486655, "AgencyID": 4, "AgencyType": "FIRE", "FacilityType": "FIRE STATION" }, "geometry": { "type": "Point", "coordinates": [ -98.486655, 29.408208 ] } },
    { "type": "Feature", "properties": { "ID": 72, "Name": "FS08", "Address": "619 S Hamilton Ave", "City": "SAN ANTONIO", "State": "TX", "Zip": "78207", "LAT": 29.422716, "LON": -98.532607, "AgencyID": 4, "AgencyType": "FIRE", "FacilityType": "FIRE STATION" }, "geometry": { "type": "Point", "coordinates": [ -98.532607, 29.422716 ] } },
    { "type": "Feature", "properties": { "ID": 73, "Name": "FS09", "Address": "649 DELMAR ST", "City": "SAN ANTONIO", "State": "TX", "Zip": "78210", "LAT": 29.407152, "LON": -98.454732, "AgencyID": 4, "AgencyType": "FIRE", "FacilityType": "FIRE STATION" }, "geometry": { "type": "Point", "coordinates": [ -98.454732, 29.407152 ] } },
    { "type": "Feature", "properties": { "ID": 74, "Name": "FS10", "Address": "1107 Culebra Rd", "City": "SAN ANTONIO", "State": "TX", "Zip": "78201", "LAT": 29.44549, "LON": -98.52533, "AgencyID": 4, "AgencyType": "FIRE", "FacilityType": "FIRE STATION" }, "geometry": { "type": "Point", "coordinates": [ -98.52533, 29.44549 ] } },
    { "type": "Feature", "properties": { "ID": 75, "Name": "FS11", "Address": "610 S Frio", "City": "SAN ANTONIO", "State": "TX", "Zip": "", "LAT": 29.420394, "LON": -98.504072, "AgencyID": 4, "AgencyType": "FIRE", "FacilityType": "FIRE STATION" }, "geometry": { "type": "Point", "coordinates": [ -98.504072, 29.420394 ] } },
    { "type": "Feature", "properties": { "ID": 76, "Name": "FS12", "Address": "103 Arts Crafts Way", "City": "SAN ANTONIO", "State": "TX", "Zip": "", "LAT": 29.380478, "LON": -98.568764, "AgencyID": 4, "AgencyType": "FIRE", "FacilityType": "FIRE STATION" }, "geometry": { "type": "Point", "coordinates": [ -98.568764, 29.380478 ] } },
    { "type": "Feature", "properties": { "ID": 77, "Name": "FS13", "Address": "3203 S Presa St", "City": "SAN ANTONIO", "State": "TX", "Zip": "78210", "LAT": 29.391202, "LON": -98.48082, "AgencyID": 4, "AgencyType": "FIRE", "FacilityType": "FIRE STATION" }, "geometry": { "type": "Point", "coordinates": [ -98.48082, 29.391202 ] } },
    { "type": "Feature", "properties": { "ID": 78, "Name": "FS14", "Address": "2515 Thousand Oaks", "City": "SAN ANTONIO", "State": "TX", "Zip": "", "LAT": 29.585452, "LON": -98.449807, "AgencyID": 4, "AgencyType": "FIRE", "FacilityType": "FIRE STATION" }, "geometry": { "type": "Point", "coordinates": [ -98.449807, 29.585452 ] } },
    { "type": "Feature", "properties": { "ID": 79, "Name": "FS15", "Address": "3150 Ruiz St", "City": "SAN ANTONIO", "State": "TX", "Zip": "", "LAT": 29.438522, "LON": -98.552624, "AgencyID": 4, "AgencyType": "FIRE", "FacilityType": "FIRE STATION" }, "geometry": { "type": "Point", "coordinates": [ -98.552624, 29.438522 ] } },
    { "type": "Feature", "properties": { "ID": 80, "Name": "FS16", "Address": "2110 Nogalitos St", "City": "SAN ANTONIO", "State": "TX", "Zip": "", "LAT": 29.392731, "LON": -98.518031, "AgencyID": 4, "AgencyType": "FIRE", "FacilityType": "FIRE STATION" }, "geometry": { "type": "Point", "coordinates": [ -98.518031, 29.392731 ] } },
    { "type": "Feature", "properties": { "ID": 81, "Name": "FS17", "Address": "8545 Jones Maltsberger Rd", "City": "SAN ANTONIO", "State": "TX", "Zip": "78216", "LAT": 29.517363, "LON": -98.483795, "AgencyID": 4, "AgencyType": "FIRE", "FacilityType": "FIRE STATION" }, "geometry": { "type": "Point", "coordinates": [ -98.483795, 29.517363 ] } },
    { "type": "Feature", "properties": { "ID": 82, "Name": "FS18", "Address": "1463 S WW WHITE RD", "City": "SAN ANTONIO", "State": "TX", "Zip": "78220", "LAT": 29.40748, "LON": -98.405897, "AgencyID": 4, "AgencyType": "FIRE", "FacilityType": "FIRE STATION" }, "geometry": { "type": "Point", "coordinates": [ -98.405897, 29.40748 ] } },
    { "type": "Feature", "properties": { "ID": 84, "Name": "FS20", "Address": "3347 S WW WHITE RD", "City": "SAN ANTONIO", "State": "TX", "Zip": "78222", "LAT": 29.369692, "LON": -98.404949, "AgencyID": 4, "AgencyType": "FIRE", "FacilityType": "FIRE STATION" }, "geometry": { "type": "Point", "coordinates": [ -98.404949, 29.369692 ] } },
    { "type": "Feature", "properties": { "ID": 85, "Name": "FS21", "Address": "5537 S FLORES ST", "City": "SAN ANTONIO", "State": "TX", "Zip": "78214", "LAT": 29.37037, "LON": -98.496992, "AgencyID": 4, "AgencyType": "FIRE", "FacilityType": "FIRE STATION" }, "geometry": { "type": "Point", "coordinates": [ -98.496992, 29.37037 ] } },
    { "type": "Feature", "properties": { "ID": 86, "Name": "FS22", "Address": "1100 March Ave", "City": "SAN ANTONIO", "State": "TX", "Zip": "", "LAT": 29.34734, "LON": -98.480568, "AgencyID": 4, "AgencyType": "FIRE", "FacilityType": "FIRE STATION" }, "geometry": { "type": "Point", "coordinates": [ -98.480568, 29.34734 ] } },
    { "type": "Feature", "properties": { "ID": 87, "Name": "FS23", "Address": "1750 SKYPLACE BLVD", "City": "SAN ANTONIO", "State": "TX", "Zip": "", "LAT": 29.539236, "LON": -98.472536, "AgencyID": 4, "AgencyType": "FIRE", "FacilityType": "FIRE STATION" }, "geometry": { "type": "Point", "coordinates": [ -98.472536, 29.539236 ] } },
    { "type": "Feature", "properties": { "ID": 88, "Name": "FS24", "Address": "1940 AUSTIN HWY", "City": "SAN ANTONIO", "State": "TX", "Zip": "78218", "LAT": 29.501, "LON": -98.419341, "AgencyID": 4, "AgencyType": "FIRE", "FacilityType": "FIRE STATION" }, "geometry": { "type": "Point", "coordinates": [ -98.419341, 29.501 ] } },
    { "type": "Feature", "properties": { "ID": 89, "Name": "FS25", "Address": "1038 NEW LAREDO HWY", "City": "SAN ANTONIO", "State": "TX", "Zip": "78211", "LAT": 29.361171, "LON": -98.554372, "AgencyID": 4, "AgencyType": "FIRE", "FacilityType": "FIRE STATION" }, "geometry": { "type": "Point", "coordinates": [ -98.554372, 29.361171 ] } },
    { "type": "Feature", "properties": { "ID": 90, "Name": "FS26", "Address": "4140 Culebra Rd", "City": "SAN ANTONIO", "State": "TX", "Zip": "", "LAT": 29.448149, "LON": -98.586484, "AgencyID": 4, "AgencyType": "FIRE", "FacilityType": "FIRE STATION" }, "geometry": { "type": "Point", "coordinates": [ -98.586484, 29.448149 ] } },
    { "type": "Feature", "properties": { "ID": 91, "Name": "FS27", "Address": "1538 HILLCREST DR", "City": "SAN ANTONIO", "State": "TX", "Zip": "78228", "LAT": 29.469722, "LON": -98.568056, "AgencyID": 4, "AgencyType": "FIRE", "FacilityType": "FIRE STATION" }, "geometry": { "type": "Point", "coordinates": [ -98.568056, 29.469722 ] } },
    { "type": "Feature", "properties": { "ID": 92, "Name": "FS28", "Address": "15 BURWOOD LN", "City": "SAN ANTONIO", "State": "TX", "Zip": "78216", "LAT": 29.494783, "LON": -98.503634, "AgencyID": 4, "AgencyType": "FIRE", "FacilityType": "FIRE STATION" }, "geometry": { "type": "Point", "coordinates": [ -98.503634, 29.494783 ] } },
    { "type": "Feature", "properties": { "ID": 93, "Name": "FS29", "Address": "827 Hot Wells", "City": "SAN ANTONIO", "State": "TX", "Zip": "", "LAT": 29.36913, "LON": -98.450306, "AgencyID": 4, "AgencyType": "FIRE", "FacilityType": "FIRE STATION" }, "geometry": { "type": "Point", "coordinates": [ -98.450306, 29.36913 ] } },
    { "type": "Feature", "properties": { "ID": 94, "Name": "FS30", "Address": "919 Gembler Rd", "City": "SAN ANTONIO", "State": "TX", "Zip": "78219", "LAT": 29.435854, "LON": -98.416472, "AgencyID": 4, "AgencyType": "FIRE", "FacilityType": "FIRE STATION" }, "geometry": { "type": "Point", "coordinates": [ -98.416472, 29.435854 ] } },
    { "type": "Feature", "properties": { "ID": 95, "Name": "FS31", "Address": "11802 WEST AVE", "City": "SAN ANTONIO", "State": "TX", "Zip": "78216", "LAT": 29.548156, "LON": -98.506544, "AgencyID": 4, "AgencyType": "FIRE", "FacilityType": "FIRE STATION" }, "geometry": { "type": "Point", "coordinates": [ -98.506544, 29.548156 ] } },
    { "type": "Feature", "properties": { "ID": 96, "Name": "FS32", "Address": "2235 BABCOCK RD", "City": "SAN ANTONIO", "State": "TX", "Zip": "78229", "LAT": 29.504522, "LON": -98.583593, "AgencyID": 4, "AgencyType": "FIRE", "FacilityType": "FIRE STATION" }, "geometry": { "type": "Point", "coordinates": [ -98.583593, 29.504522 ] } },
    { "type": "Feature", "properties": { "ID": 97, "Name": "FS33", "Address": "2002 SW 36TH ST", "City": "SAN ANTONIO", "State": "TX", "Zip": "78237", "LAT": 29.409615, "LON": -98.574157, "AgencyID": 4, "AgencyType": "FIRE", "FacilityType": "FIRE STATION" }, "geometry": { "type": "Point", "coordinates": [ -98.574157, 29.409615 ] } },
    { "type": "Feature", "properties": { "ID": 98, "Name": "FS34", "Address": "15300 BABCOCK RD", "City": "SAN ANTONIO", "State": "TX", "Zip": "78249", "LAT": 29.585027, "LON": -98.630952, "AgencyID": 4, "AgencyType": "FIRE", "FacilityType": "FIRE STATION" }, "geometry": { "type": "Point", "coordinates": [ -98.630952, 29.585027 ] } },
    { "type": "Feature", "properties": { "ID": 99, "Name": "FS35", "Address": "7038 Culebra Rd", "City": "SAN ANTONIO", "State": "TX", "Zip": "", "LAT": 29.451915, "LON": -98.628978, "AgencyID": 4, "AgencyType": "FIRE", "FacilityType": "FIRE STATION" }, "geometry": { "type": "Point", "coordinates": [ -98.628978, 29.451915 ] } },
    { "type": "Feature", "properties": { "ID": 100, "Name": "FS36", "Address": "5826 RAY ELLISON BLVD", "City": "SAN ANTONIO", "State": "TX", "Zip": "78242", "LAT": 29.357104, "LON": -98.624399, "AgencyID": 4, "AgencyType": "FIRE", "FacilityType": "FIRE STATION" }, "geometry": { "type": "Point", "coordinates": [ -98.624399, 29.357104 ] } },
    { "type": "Feature", "properties": { "ID": 101, "Name": "FS37", "Address": "11011 Vance Jackson", "City": "SAN ANTONIO", "State": "TX", "Zip": "", "LAT": 29.541505, "LON": -98.554762, "AgencyID": 4, "AgencyType": "FIRE", "FacilityType": "FIRE STATION" }, "geometry": { "type": "Point", "coordinates": [ -98.554762, 29.541505 ] } },
    { "type": "Feature", "properties": { "ID": 102, "Name": "FS38", "Address": "6000 Distribution", "City": "SAN ANTONIO", "State": "TX", "Zip": "", "LAT": 29.482821, "LON": -98.391428, "AgencyID": 4, "AgencyType": "FIRE", "FacilityType": "FIRE STATION" }, "geometry": { "type": "Point", "coordinates": [ -98.391428, 29.482821 ] } },
    { "type": "Feature", "properties": { "ID": 103, "Name": "FS39", "Address": "10750 Nacogdoches Rd", "City": "SAN ANTONIO", "State": "TX", "Zip": "", "LAT": 29.537237, "LON": -98.423856, "AgencyID": 4, "AgencyType": "FIRE", "FacilityType": "FIRE STATION" }, "geometry": { "type": "Point", "coordinates": [ -98.423856, 29.537237 ] } },
    { "type": "Feature", "properties": { "ID": 104, "Name": "FS40", "Address": "14331 O'connor Rd", "City": "SAN ANTONIO", "State": "TX", "Zip": "", "LAT": 29.574231, "LON": -98.38894, "AgencyID": 4, "AgencyType": "FIRE", "FacilityType": "FIRE STATION" }, "geometry": { "type": "Point", "coordinates": [ -98.38894, 29.574231 ] } },
    { "type": "Feature", "properties": { "ID": 105, "Name": "FS41", "Address": "9146 Dover Rdg", "City": "SAN ANTONIO", "State": "TX", "Zip": "", "LAT": 29.511493, "LON": -98.663426, "AgencyID": 4, "AgencyType": "FIRE", "FacilityType": "FIRE STATION" }, "geometry": { "type": "Point", "coordinates": [ -98.663426, 29.511493 ] } },
    { "type": "Feature", "properties": { "ID": 106, "Name": "FS42", "Address": "10400 HORN BLVD", "City": "SAN ANTONIO", "State": "TX", "Zip": "78240", "LAT": 29.540882, "LON": -98.614823, "AgencyID": 4, "AgencyType": "FIRE", "FacilityType": "FIRE STATION" }, "geometry": { "type": "Point", "coordinates": [ -98.614823, 29.540882 ] } },
    { "type": "Feature", "properties": { "ID": 107, "Name": "FS43", "Address": "2055 W Bitters Rd", "City": "SAN ANTONIO", "State": "TX", "Zip": "", "LAT": 29.594586, "LON": -98.530786, "AgencyID": 4, "AgencyType": "FIRE", "FacilityType": "FIRE STATION" }, "geometry": { "type": "Point", "coordinates": [ -98.530786, 29.594586 ] } },
    { "type": "Feature", "properties": { "ID": 108, "Name": "FS44", "Address": "1351 Horal Dr", "City": "SAN ANTONIO", "State": "TX", "Zip": "", "LAT": 29.421973, "LON": -98.655637, "AgencyID": 4, "AgencyType": "FIRE", "FacilityType": "FIRE STATION" }, "geometry": { "type": "Point", "coordinates": [ -98.655637, 29.421973 ] } },
    { "type": "Feature", "properties": { "ID": 109, "Name": "FS45", "Address": "3415 ROGERS RD", "City": "SAN ANTONIO", "State": "TX", "Zip": "", "LAT": 29.466776, "LON": -98.69001, "AgencyID": 4, "AgencyType": "FIRE", "FacilityType": "FIRE STATION" }, "geometry": { "type": "Point", "coordinates": [ -98.69001, 29.466776 ] } },
    { "type": "Feature", "properties": { "ID": 110, "Name": "FS46", "Address": "1165 Evans Rd", "City": "SAN ANTONIO", "State": "TX", "Zip": "", "LAT": 29.639191, "LON": -98.476018, "AgencyID": 4, "AgencyType": "FIRE", "FacilityType": "FIRE STATION" }, "geometry": { "type": "Point", "coordinates": [ -98.476018, 29.639191 ] } },
    { "type": "Feature", "properties": { "ID": 111, "Name": "FS47", "Address": "7240 Stonewall Bend", "City": "SAN ANTONIO", "State": "TX", "Zip": "", "LAT": 29.649092, "LON": -98.626278, "AgencyID": 4, "AgencyType": "FIRE", "FacilityType": "FIRE STATION" }, "geometry": { "type": "Point", "coordinates": [ -98.626278, 29.649092 ] } },
    { "type": "Feature", "properties": { "ID": 112, "Name": "FS48", "Address": "18100 Bulverde Rd", "City": "SAN ANTONIO", "State": "TX", "Zip": "", "LAT": 29.607492, "LON": -98.418019, "AgencyID": 4, "AgencyType": "FIRE", "FacilityType": "FIRE STATION" }, "geometry": { "type": "Point", "coordinates": [ -98.418019, 29.607492 ] } },
    { "type": "Feature", "properties": { "ID": 113, "Name": "FS49", "Address": "8710 Mystic Park", "City": "SAN ANTONIO", "State": "TX", "Zip": "", "LAT": 29.523755, "LON": -98.642666, "AgencyID": 4, "AgencyType": "FIRE", "FacilityType": "FIRE STATION" }, "geometry": { "type": "Point", "coordinates": [ -98.642666, 29.523755 ] } },
    { "type": "Feature", "properties": { "ID": 114, "Name": "FS50", "Address": "15000 APPLEWHITE RD", "City": "SAN ANTONIO", "State": "TX", "Zip": "78224", "LAT": 29.273889, "LON": -98.55, "AgencyID": 4, "AgencyType": "FIRE", "FacilityType": "FIRE STATION" }, "geometry": { "type": "Point", "coordinates": [ -98.55, 29.273889 ] } },
    { "type": "Feature", "properties": { "ID": 115, "Name": "FS51", "Address": "5020 BECKWITH BLVD", "City": "SAN ANTONIO", "State": "TX", "Zip": "78249", "LAT": 29.572685, "LON": -98.587399, "AgencyID": 4, "AgencyType": "FIRE", "FacilityType": "FIRE STATION" }, "geometry": { "type": "Point", "coordinates": [ -98.587399, 29.572685 ] } },
    { "type": "Feature", "properties": { "ID": 322, "Name": "FS19", "Address": "2307 Vance Jackson", "City": "SAN ANTONIO", "State": "TX", "Zip": "78213", "LAT": 29.493341, "LON": -98.535282, "AgencyID": 4, "AgencyType": "FIRE", "FacilityType": "FIRE STATION" }, "geometry": { "type": "Point", "coordinates": [ -98.535282, 29.493341 ] } }
  ]
}
